$GPGGA,175925.000,4334.2197,N,00127.9628,E,2,07,1.61,141.0,M,50.4,M,0000,0000*6A
$GPGSA,A,3,13,30,28,05,20,07,15,,,,,,2.99,1.61,2.52*0C
$GPGSV,3,1,10,05,61,204,42,13,61,310,42,28,50,110,36,30,48,054,42*7B
$GPGSV,3,2,10,20,41,299,40,33,36,203,36,15,30,296,42,07,15,056,35*73
$GPGSV,3,3,10,08,03,043,,24,03,241,*76
$GPRMC,175925.000,A,4334.2197,N,00127.9628,E,0.01,200.28,281116,,,D*6E
$GPVTG,200.28,T,,M,0.01,N,0.01,K,D*30
$GPGGA,175926.000,4334.2197,N,00127.9628,E,2,07,1.61,141.0,M,50.4,M,0000,0000*69
$GPGSA,A,3,13,30,28,05,20,07,15,,,,,,2.99,1.61,2.52*0C
$GPRMC,175926.000,A,4334.2197,N,00127.9628,E,0.01,238.51,281116,,,D*68
$GPVTG,238.51,T,,M,0.01,N,0.01,K,D*35
$GPGGA,175927.000,4334.2197,N,00127.9628,E,2,07,1.61,141.0,M,50.4,M,0000,0000*68
$GPGSA,A,3,13,30,28,05,20,07,15,,,,,,2.99,1.61,2.52*0C
$GPRMC,175927.000,A,4334.2197,N,00127.9628,E,0.01,279.78,281116,,,D*67
$GPVTG,279.78,T,,M,0.01,N,0.01,K,D*3B
$GPGGA,175928.000,4334.2197,N,00127.9628,E,2,07,1.61,141.0,M,50.4,M,0000,0000*67
$GPGSA,A,3,13,30,28,05,20,07,15,,,,,,3.00,1.61,2.53*0C
$GPRMC,175928.000,A,4334.2197,N,00127.9628,E,0.00,109.42,281116,,,D*64
$GPVTG,109.42,T,,M,0.00,N,0.01,K,D*37
$GPGGA,175929.000,4334.2197,N,00127.9628,E,2,07,1.61,141.0,M,50.4,M,0000,0000*66
$GPGSA,A,3,13,30,28,05,20,07,15,,,,,,2.99,1.61,2.52*0C
$GPRMC,175929.000,A,4334.2197,N,00127.9628,E,0.01,320.49,281116,,,D*66
$GPVTG,320.49,T,,M,0.01,N,0.02,K,D*37
$GPGGA,175930.000,4334.2197,N,00127.9628,E,2,07,1.61,141.0,M,50.4,M,0000,0000*6E
$GPGSA,A,3,13,30,28,05,20,07,15,,,,,,2.99,1.61,2.52*0C
$GPGSV,3,1,10,05,61,204,38,13,61,311,39,28,50,110,35,30,48,054,39*74
$GPGSV,3,2,10,20,41,299,36,33,36,203,28,15,30,296,38,07,15,056,33*76
$GPGSV,3,3,10,08,03,043,,24,03,241,*76
$GPRMC,175930.000,A,4334.2197,N,00127.9628,E,0.01,158.26,281116,,,D*6A
$GPVTG,158.26,T,,M,0.01,N,0.01,K,D*30
$GPGGA,175931.000,4334.2197,N,00127.9628,E,2,07,1.61,141.0,M,50.4,M,0000,0000*6F
$GPGSA,A,3,13,30,28,05,20,07,15,,,,,,3.00,1.61,2.53*0C
$GPRMC,175931.000,A,4334.2197,N,00127.9628,E,0.07,60.52,281116,,,D*54
$GPVTG,60.52,T,,M,0.07,N,0.14,K,D*0B
$GPGGA,175932.000,4334.2197,N,00127.9628,E,2,07,1.61,141.0,M,50.4,M,0000,0000*6C
$GPGSA,A,3,13,30,28,05,20,07,15,,,,,,2.99,1.61,2.52*0C
$GPRMC,175932.000,A,4334.2197,N,00127.9628,E,0.10,64.11,281116,,,D*52
$GPVTG,64.11,T,,M,0.10,N,0.19,K,D*03
$GPGGA,175933.000,4334.2197,N,00127.9628,E,2,07,1.61,141.0,M,50.4,M,0000,0000*6D
$GPGSA,A,3,13,30,28,05,20,07,15,,,,,,2.99,1.61,2.52*0C
$GPRMC,175933.000,A,4334.2197,N,00127.9628,E,0.66,60.88,281116,,,D*56
$GPVTG,60.88,T,,M,0.66,N,1.23,K,D*0E
$GPGGA,175934.000,4334.2199,N,00127.9634,E,2,07,1.33,141.0,M,50.4,M,0000,0000*6E
$GPGSA,A,3,13,30,28,05,20,07,15,,,,,,1.62,1.33,0.93*03
$GPRMC,175934.000,A,4334.2199,N,00127.9634,E,1.72,59.83,281116,,,D*57
$GPVTG,59.83,T,,M,1.72,N,3.19,K,D*00
$GPGGA,175935.000,4334.2202,N,00127.9640,E,2,07,1.33,141.1,M,50.4,M,0000,0000*6C
$GPGSA,A,3,13,30,28,05,20,07,15,,,,,,1.62,1.33,0.93*03
$GPGSV,3,1,10,05,61,204,32,13,61,311,38,28,50,110,34,30,48,054,35*72
$GPGSV,3,2,10,20,41,299,38,33,36,203,31,15,30,296,38,07,15,056,31*72
$GPGSV,3,3,10,08,03,043,,24,03,241,*76
$GPRMC,175935.000,A,4334.2202,N,00127.9640,E,1.95,58.66,281116,,,D*57
$GPVTG,58.66,T,,M,1.95,N,3.61,K,D*0C
$GPGGA,175936.000,4334.2205,N,00127.9649,E,2,07,1.33,141.1,M,50.4,M,0000,0000*61
$GPGSA,A,3,13,30,28,05,20,07,15,,,,,,1.62,1.33,0.93*03
$GPRMC,175936.000,A,4334.2205,N,00127.9649,E,2.30,57.63,281116,,,D*5C
$GPVTG,57.63,T,,M,2.30,N,4.26,K,D*0E
$GPGGA,175937.000,4334.2209,N,00127.9657,E,2,07,1.33,141.0,M,50.4,M,0000,0000*62
$GPGSA,A,3,13,30,28,05,20,07,15,,,,,,1.62,1.33,0.93*03
$GPRMC,175937.000,A,4334.2209,N,00127.9657,E,2.28,54.90,281116,,,D*58
$GPVTG,54.90,T,,M,2.28,N,4.22,K,D*0C
$GPGGA,175938.000,4334.2213,N,00127.9665,E,2,07,1.33,141.1,M,50.4,M,0000,0000*66
$GPGSA,A,3,13,30,28,05,20,07,15,,,,,,1.62,1.33,0.93*03
$GPRMC,175938.000,A,4334.2213,N,00127.9665,E,2.31,53.61,281116,,,D*5C
$GPVTG,53.61,T,,M,2.31,N,4.28,K,D*07
$GPGGA,175939.000,4334.2217,N,00127.9674,E,2,07,1.33,141.0,M,50.4,M,0000,0000*62
$GPGSA,A,3,13,30,28,05,20,07,15,,,,,,1.62,1.33,0.93*03
$GPRMC,175939.000,A,4334.2217,N,00127.9674,E,2.37,53.77,281116,,,D*58
$GPVTG,53.77,T,,M,2.37,N,4.40,K,D*08
$GPGGA,175940.000,4334.2220,N,00127.9681,E,2,07,1.33,141.0,M,50.4,M,0000,0000*62
$GPGSA,A,3,13,30,28,05,20,07,15,,,,,,1.62,1.33,0.93*03
$GPGSV,3,1,10,05,61,204,37,13,61,311,40,28,50,110,19,30,48,054,37*75
$GPGSV,3,2,10,20,41,299,39,33,36,203,32,15,30,296,39,07,15,056,34*74
$GPGSV,3,3,10,08,03,043,,24,03,242,*75
$GPRMC,175940.000,A,4334.2220,N,00127.9681,E,2.16,57.09,281116,,,D*56
$GPVTG,57.09,T,,M,2.16,N,4.01,K,D*03
$GPGGA,175941.000,4334.2224,N,00127.9689,E,2,07,1.33,141.0,M,50.4,M,0000,0000*6F
$GPGSA,A,3,13,30,28,05,20,07,15,,,,,,1.62,1.33,0.93*03
$GPRMC,175941.000,A,4334.2224,N,00127.9689,E,2.30,52.80,281116,,,D*5B
$GPVTG,52.80,T,,M,2.30,N,4.26,K,D*06
$GPGGA,175942.000,4334.2229,N,00127.9698,E,2,07,1.33,140.9,M,50.4,M,0000,0000*69
$GPGSA,A,3,13,30,28,05,20,07,15,,,,,,1.62,1.33,0.93*03
$GPRMC,175942.000,A,4334.2229,N,00127.9698,E,2.32,51.20,281116,,,D*5E
$GPVTG,51.20,T,,M,2.32,N,4.30,K,D*0A
$GPGGA,175943.000,4334.2233,N,00127.9706,E,2,07,1.33,140.8,M,50.4,M,0000,0000*64
$GPGSA,A,3,13,30,28,05,20,07,15,,,,,,1.62,1.33,0.93*03
$GPRMC,175943.000,A,4334.2233,N,00127.9706,E,2.32,53.45,281116,,,D*53
$GPVTG,53.45,T,,M,2.32,N,4.29,K,D*03
$GPGGA,175944.000,4334.2237,N,00127.9714,E,2,07,1.33,140.7,M,50.4,M,0000,0000*6B
$GPGSA,A,3,13,30,28,05,20,07,15,,,,,,1.62,1.33,0.93*03
$GPRMC,175944.000,A,4334.2237,N,00127.9714,E,2.42,54.57,281116,,,D*50
$GPVTG,54.57,T,,M,2.42,N,4.48,K,D*07
$GPGGA,175945.000,4334.2241,N,00127.9722,E,2,07,1.33,140.7,M,50.4,M,0000,0000*6E
$GPGSA,A,3,13,30,28,05,20,07,15,,,,,,1.62,1.33,0.93*03
$GPGSV,3,1,10,05,61,204,38,13,61,311,43,28,50,110,27,30,47,054,39*75
$GPGSV,3,2,10,20,41,299,40,33,36,203,33,15,30,296,39,07,15,056,38*77
$GPGSV,3,3,10,08,03,043,,24,03,242,*75
$GPRMC,175945.000,A,4334.2241,N,00127.9722,E,2.42,55.17,281116,,,D*50
$GPVTG,55.17,T,,M,2.42,N,4.48,K,D*02
$GPGGA,175946.000,4334.2245,N,00127.9730,E,2,07,1.33,140.7,M,50.4,M,0000,0000*6A
$GPGSA,A,3,13,30,28,05,20,07,15,,,,,,1.62,1.33,0.93*03
$GPRMC,175946.000,A,4334.2245,N,00127.9730,E,2.41,54.28,281116,,,D*5A
$GPVTG,54.28,T,,M,2.41,N,4.47,K,D*03
$GPGGA,175947.000,4334.2249,N,00127.9739,E,2,07,1.33,140.7,M,50.4,M,0000,0000*6E
$GPGSA,A,3,13,30,28,05,20,07,15,,,,,,1.62,1.33,0.93*03
$GPRMC,175947.000,A,4334.2249,N,00127.9739,E,2.50,54.86,281116,,,D*5A
$GPVTG,54.86,T,,M,2.50,N,4.64,K,D*06
$GPGGA,175948.000,4334.2254,N,00127.9749,E,2,07,1.33,140.7,M,50.4,M,0000,0000*6A
$GPGSA,A,3,13,30,28,05,20,07,15,,,,,,1.62,1.33,0.93*03
$GPRMC,175948.000,A,4334.2254,N,00127.9749,E,2.55,55.36,281116,,,D*51
$GPVTG,55.36,T,,M,2.55,N,4.72,K,D*0E
$GPGGA,175949.000,4334.2258,N,00127.9757,E,2,07,1.33,140.7,M,50.4,M,0000,0000*68
$GPGSA,A,3,13,30,28,05,20,07,15,,,,,,1.62,1.33,0.93*03
$GPRMC,175949.000,A,4334.2258,N,00127.9757,E,2.40,54.91,281116,,,D*5B
$GPVTG,54.91,T,,M,2.40,N,4.44,K,D*03
$GPGGA,175950.000,4334.2263,N,00127.9765,E,2,07,1.33,140.7,M,50.4,M,0000,0000*69
$GPGSA,A,3,13,30,28,05,20,07,15,,,,,,1.62,1.33,0.93*03
$GPGSV,3,1,10,05,61,204,42,13,61,311,45,28,50,110,33,30,47,054,43*76
$GPGSV,3,2,10,20,41,299,44,33,36,203,36,15,30,296,46,07,15,056,41*70
$GPGSV,3,3,10,08,03,043,,24,03,242,*75
$GPRMC,175950.000,A,4334.2263,N,00127.9765,E,2.66,50.17,281116,,,D*54
$GPVTG,50.17,T,,M,2.66,N,4.93,K,D*07
$GPGGA,175951.000,4334.2268,N,00127.9774,E,2,07,1.33,140.6,M,50.4,M,0000,0000*62
$GPGSA,A,3,13,30,28,05,20,07,15,,,,,,1.62,1.33,0.93*03
$GPRMC,175951.000,A,4334.2268,N,00127.9774,E,2.61,52.87,281116,,,D*52
$GPVTG,52.87,T,,M,2.61,N,4.84,K,D*0D
$GPGGA,175952.000,4334.2273,N,00127.9782,E,2,07,1.33,140.5,M,50.4,M,0000,0000*61
$GPGSA,A,3,13,30,28,05,20,07,15,,,,,,1.62,1.33,0.93*03
$GPRMC,175952.000,A,4334.2273,N,00127.9782,E,2.59,51.78,281116,,,D*5A
$GPVTG,51.78,T,,M,2.59,N,4.80,K,D*01
$GPGGA,175953.000,4334.2277,N,00127.9791,E,2,07,1.33,140.5,M,50.4,M,0000,0000*66
$GPGSA,A,3,13,30,28,05,20,07,15,,,,,,1.62,1.33,0.93*03
$GPRMC,175953.000,A,4334.2277,N,00127.9791,E,2.62,54.19,281116,,,D*57
$GPVTG,54.19,T,,M,2.62,N,4.85,K,D*0E
$GPGGA,175954.000,4334.2282,N,00127.9800,E,2,07,1.33,140.5,M,50.4,M,0000,0000*6C
$GPGSA,A,3,13,30,28,05,20,07,15,,,,,,1.62,1.33,0.93*03
$GPRMC,175954.000,A,4334.2282,N,00127.9800,E,2.47,53.83,281116,,,D*5E
$GPVTG,53.83,T,,M,2.47,N,4.58,K,D*0D
$GPGGA,175955.000,4334.2287,N,00127.9809,E,2,07,1.33,140.5,M,50.4,M,0000,0000*61
$GPGSA,A,3,13,30,28,05,20,07,15,,,,,,1.62,1.33,0.93*03
$GPGSV,3,1,10,05,61,203,41,13,61,311,45,28,50,110,33,30,47,054,44*75
$GPGSV,3,2,10,20,41,299,46,33,36,203,32,15,30,296,43,07,15,056,41*73
$GPGSV,3,3,10,08,03,043,,24,03,242,*75
$GPRMC,175955.000,A,4334.2287,N,00127.9809,E,2.51,54.43,281116,,,D*5F
$GPVTG,54.43,T,,M,2.51,N,4.66,K,D*0C
$GPGGA,175956.000,4334.2291,N,00127.9817,E,2,07,1.33,140.5,M,50.4,M,0000,0000*6A
$GPGSA,A,3,13,30,28,05,20,07,15,,,,,,1.62,1.33,0.93*03
$GPRMC,175956.000,A,4334.2291,N,00127.9817,E,2.45,54.43,281116,,,D*51
$GPVTG,54.43,T,,M,2.45,N,4.54,K,D*08
$GPGGA,175957.000,4334.2296,N,00127.9825,E,2,07,1.33,140.6,M,50.4,M,0000,0000*6E
$GPGSA,A,3,13,30,28,05,20,07,15,,,,,,1.62,1.33,0.93*03
$GPRMC,175957.000,A,4334.2296,N,00127.9825,E,2.56,55.33,281116,,,D*52
$GPVTG,55.33,T,,M,2.56,N,4.75,K,D*0F
$GPGGA,175958.000,4334.2300,N,00127.9834,E,2,07,1.33,140.6,M,50.4,M,0000,0000*6F
$GPGSA,A,3,13,30,28,05,20,07,15,,,,,,1.62,1.33,0.93*03
$GPRMC,175958.000,A,4334.2300,N,00127.9834,E,2.62,54.07,281116,,,D*52
$GPVTG,54.07,T,,M,2.62,N,4.85,K,D*01
$GPGGA,175959.000,4334.2305,N,00127.9842,E,2,07,1.33,140.6,M,50.4,M,0000,0000*6A
$GPGSA,A,3,13,30,28,05,20,07,15,,,,,,1.62,1.33,0.93*03
$GPRMC,175959.000,A,4334.2305,N,00127.9842,E,2.63,54.09,281116,,,D*58
$GPVTG,54.09,T,,M,2.63,N,4.86,K,D*0D
$GPGGA,180000.000,4334.2309,N,00127.9851,E,2,07,1.33,140.7,M,50.4,M,0000,0000*6A
$GPGSA,A,3,13,30,28,05,20,07,15,,,,,,1.62,1.33,0.93*03
$GPGSV,3,1,10,05,61,203,38,13,61,311,42,28,50,110,27,30,47,054,39*73
$GPGSV,3,2,10,20,41,299,40,33,36,203,27,15,30,296,41,07,15,056,36*73
$GPGSV,3,3,10,08,03,043,,24,03,242,*75
$GPRMC,180000.000,A,4334.2309,N,00127.9851,E,2.62,52.50,281116,,,D*52
$GPVTG,52.50,T,,M,2.62,N,4.86,K,D*06
$GPGGA,180001.000,4334.2314,N,00127.9859,E,2,07,1.33,140.7,M,50.4,M,0000,0000*6F
$GPGSA,A,3,13,30,28,05,20,07,15,,,,,,1.62,1.33,0.93*03
$GPRMC,180001.000,A,4334.2314,N,00127.9859,E,2.64,53.57,281116,,,D*57
$GPVTG,53.57,T,,M,2.64,N,4.89,K,D*09
$GPGGA,180002.000,4334.2319,N,00127.9867,E,2,07,1.33,140.8,M,50.4,M,0000,0000*63
$GPGSA,A,3,13,30,28,05,20,07,15,,,,,,1.62,1.33,0.93*03
$GPRMC,180002.000,A,4334.2319,N,00127.9867,E,2.70,54.22,281116,,,D*54
$GPVTG,54.22,T,,M,2.70,N,5.00,K,D*09
$GPGGA,180003.000,4334.2324,N,00127.9876,E,2,07,1.33,140.9,M,50.4,M,0000,0000*6D
$GPGSA,A,3,13,30,28,05,20,07,15,,,,,,1.62,1.33,0.93*03
$GPRMC,180003.000,A,4334.2324,N,00127.9876,E,2.73,54.59,281116,,,D*54
$GPVTG,54.59,T,,M,2.73,N,5.05,K,D*03
$GPGGA,180004.000,4334.2329,N,00127.9885,E,2,07,1.33,141.0,M,50.4,M,0000,0000*63
$GPGSA,A,3,13,30,28,05,20,07,15,,,,,,1.62,1.33,0.93*03
$GPRMC,180004.000,A,4334.2329,N,00127.9885,E,2.72,54.89,281116,,,D*5E
$GPVTG,54.89,T,,M,2.72,N,5.04,K,D*0E
$GPGGA,180005.000,4334.2335,N,00127.9894,E,2,07,1.32,141.1,M,50.4,M,0000,0000*6F
$GPGSA,A,3,13,30,28,05,20,07,15,,,,,,1.62,1.32,0.93*02
$GPGSV,3,1,10,05,61,203,45,13,61,311,45,28,50,110,33,30,47,054,41*74
$GPGSV,3,2,10,20,41,299,42,33,36,203,25,15,30,296,46,07,15,056,42*77
$GPGSV,3,3,10,08,03,043,,24,03,242,*75
$GPRMC,180005.000,A,4334.2335,N,00127.9894,E,2.80,53.57,281116,,,D*5B
$GPVTG,53.57,T,,M,2.80,N,5.19,K,D*0B
$GPGGA,180006.000,4334.2339,N,00127.9903,E,2,07,1.33,141.2,M,50.4,M,0000,0000*6D
$GPGSA,A,3,13,30,28,05,20,07,15,,,,,,1.62,1.33,0.93*03
$GPRMC,180006.000,A,4334.2339,N,00127.9903,E,2.68,55.00,281116,,,D*59
$GPVTG,55.00,T,,M,2.68,N,4.96,K,D*0F
$GPGGA,180007.000,4334.2344,N,00127.9911,E,2,07,1.32,141.3,M,50.4,M,0000,0000*65
$GPGSA,A,3,13,30,28,05,20,07,15,,,,,,1.62,1.32,0.93*02
$GPRMC,180007.000,A,4334.2344,N,00127.9911,E,2.40,53.02,281116,,,D*5F
$GPVTG,53.02,T,,M,2.40,N,4.46,K,D*0C
$GPGGA,180008.000,4334.2348,N,00127.9919,E,2,07,1.33,141.4,M,50.4,M,0000,0000*68
$GPGSA,A,3,13,30,28,05,20,07,15,,,,,,1.62,1.33,0.93*03
$GPRMC,180008.000,A,4334.2348,N,00127.9919,E,2.69,53.84,281116,,,D*51
$GPVTG,53.84,T,,M,2.69,N,4.98,K,D*0A
$GPGGA,180009.000,4334.2353,N,00127.9927,E,2,07,1.33,141.5,M,50.4,M,0000,0000*6F
$GPGSA,A,3,13,30,28,05,20,07,15,,,,,,1.62,1.33,0.93*03
$GPRMC,180009.000,A,4334.2353,N,00127.9927,E,2.72,52.74,281116,,,D*53
$GPVTG,52.74,T,,M,2.72,N,5.04,K,D*0A
$GPGGA,180010.000,4334.2358,N,00127.9936,E,2,07,1.33,141.6,M,50.4,M,0000,0000*6F
$GPGSA,A,3,13,30,28,05,20,07,15,,,,,,1.62,1.33,0.93*03
$GPGSV,3,1,10,05,61,203,43,13,61,311,45,28,50,110,32,30,47,054,42*70
$GPGSV,3,2,10,20,41,299,44,33,36,203,26,15,30,296,45,07,15,056,41*72
$GPGSV,3,3,10,08,03,043,,24,03,242,*75
$GPRMC,180010.000,A,4334.2358,N,00127.9936,E,2.83,55.01,281116,,,D*5B
$GPVTG,55.01,T,,M,2.83,N,5.24,K,D*03
$GPGGA,180011.000,4334.2363,N,00127.9945,E,2,07,1.33,141.6,M,50.4,M,0000,0000*62
$GPGSA,A,3,13,30,28,05,20,07,15,,,,,,1.62,1.33,0.93*03
$GPRMC,180011.000,A,4334.2363,N,00127.9945,E,2.73,54.84,281116,,,D*55
$GPVTG,54.84,T,,M,2.73,N,5.05,K,D*03
$GPGGA,180012.000,4334.2367,N,00127.9953,E,2,07,1.33,141.7,M,50.4,M,0000,0000*63
$GPGSA,A,3,13,30,28,05,20,07,15,,,,,,1.62,1.33,0.93*03
$GPRMC,180012.000,A,4334.2367,N,00127.9953,E,2.82,52.01,281116,,,D*50
$GPVTG,52.01,T,,M,2.82,N,5.23,K,D*02
$GPGGA,180013.000,4334.2372,N,00127.9962,E,2,07,1.33,141.7,M,50.4,M,0000,0000*64
$GPGSA,A,3,13,30,28,05,20,07,15,,,,,,1.62,1.33,0.93*03
$GPRMC,180013.000,A,4334.2372,N,00127.9962,E,2.73,57.18,281116,,,D*54
$GPVTG,57.18,T,,M,2.73,N,5.06,K,D*06
$GPGGA,180014.000,4334.2376,N,00127.9970,E,2,07,1.32,141.7,M,50.4,M,0000,0000*65
$GPGSA,A,3,13,30,28,05,20,07,15,,,,,,1.62,1.32,0.93*02
$GPRMC,180014.000,A,4334.2376,N,00127.9970,E,2.70,53.82,281116,,,D*50
$GPVTG,53.82,T,,M,2.70,N,5.01,K,D*05
$GPGGA,180015.000,4334.2381,N,00127.9979,E,2,07,1.33,141.8,M,50.4,M,0000,0000*6B
$GPGSA,A,3,13,30,28,05,20,07,15,,,,,,1.62,1.33,0.93*03
$GPGSV,3,1,10,05,61,203,44,13,61,311,47,28,50,110,32,30,47,054,44*73
$GPGSV,3,2,10,20,41,299,35,37,35,152,,15,30,296,35,07,15,056,42*74
$GPGSV,3,3,10,08,03,043,,24,03,242,*75
$GPRMC,180015.000,A,4334.2381,N,00127.9979,E,2.62,59.63,281116,,,D*56
$GPVTG,59.63,T,,M,2.62,N,4.86,K,D*0D
$GPGGA,180016.000,4334.2386,N,00127.9987,E,2,07,1.33,141.9,M,50.4,M,0000,0000*6F
$GPGSA,A,3,13,30,28,05,20,07,15,,,,,,1.62,1.33,0.93*03
$GPRMC,180016.000,A,4334.2386,N,00127.9987,E,2.75,54.14,281116,,,D*58
$GPVTG,54.14,T,,M,2.75,N,5.09,K,D*00
$GPGGA,180017.000,4334.2391,N,00127.9996,E,2,07,1.33,141.9,M,50.4,M,0000,0000*68
$GPGSA,A,3,13,30,28,05,20,07,15,,,,,,1.62,1.33,0.93*03
$GPRMC,180017.000,A,4334.2391,N,00127.9996,E,2.80,50.72,281116,,,D*51
$GPVTG,50.72,T,,M,2.80,N,5.18,K,D*0E
$GPGGA,180018.000,4334.2396,N,00128.0006,E,2,07,1.33,142.0,M,50.4,M,0000,0000*6C
$GPGSA,A,3,13,30,28,05,20,07,15,,,,,,1.62,1.33,0.93*03
$GPRMC,180018.000,A,4334.2396,N,00128.0006,E,2.89,51.22,281116,,,D*52
$GPVTG,51.22,T,,M,2.89,N,5.35,K,D*0C
$GPGGA,180019.000,4334.2400,N,00128.0018,E,2,07,1.32,142.2,M,50.4,M,0000,0000*69
$GPGSA,A,3,13,30,28,05,20,07,15,,,,,,1.62,1.32,0.93*02
$GPRMC,180019.000,A,4334.2400,N,00128.0018,E,2.91,51.37,281116,,,D*59
$GPVTG,51.37,T,,M,2.91,N,5.38,K,D*0C
$GPGGA,180020.000,4334.2404,N,00128.0030,E,2,07,1.32,142.4,M,50.4,M,0000,0000*6B
$GPGSA,A,3,13,30,28,05,20,07,15,,,,,,1.62,1.32,0.93*02
$GPGSV,3,1,10,05,61,203,45,13,61,311,48,28,50,109,39,30,47,054,44*7E
$GPGSV,3,2,10,20,41,299,46,37,35,152,,15,30,296,49,07,15,056,43*7A
$GPGSV,3,3,10,08,03,043,,24,03,242,*75
$GPRMC,180020.000,A,4334.2404,N,00128.0030,E,2.91,53.21,281116,,,D*58
$GPVTG,53.21,T,,M,2.91,N,5.40,K,D*06
$GPGGA,180021.000,4334.2408,N,00128.0040,E,2,07,1.32,142.6,M,50.4,M,0000,0000*63
$GPGSA,A,3,13,30,28,05,20,07,15,,,,,,1.62,1.32,0.93*02
$GPRMC,180021.000,A,4334.2408,N,00128.0040,E,2.90,52.27,281116,,,D*54
$GPVTG,52.27,T,,M,2.90,N,5.38,K,D*0F
$GPGGA,180022.000,4334.2413,N,00128.0050,E,2,07,1.32,142.7,M,50.4,M,0000,0000*6A
$GPGSA,A,3,13,30,28,05,20,07,15,,,,,,1.62,1.32,0.93*02
$GPRMC,180022.000,A,4334.2413,N,00128.0050,E,2.93,53.83,281116,,,D*50
$GPVTG,53.83,T,,M,2.93,N,5.44,K,D*08
$GPGGA,180023.000,4334.2418,N,00128.0059,E,2,07,1.32,142.9,M,50.4,M,0000,0000*67
$GPGSA,A,3,13,30,28,05,20,07,15,,,,,,1.62,1.32,0.93*02
$GPRMC,180023.000,A,4334.2418,N,00128.0059,E,2.84,53.67,281116,,,D*5F
$GPVTG,53.67,T,,M,2.84,N,5.27,K,D*01
$GPGGA,180024.000,4334.2423,N,00128.0068,E,2,07,1.32,143.0,M,50.4,M,0000,0000*62
$GPGSA,A,3,13,30,28,05,20,07,15,,,,,,1.62,1.32,0.93*02
$GPRMC,180024.000,A,4334.2423,N,00128.0068,E,2.85,54.80,281116,,,D*5D
$GPVTG,54.80,T,,M,2.85,N,5.28,K,D*01
$GPGGA,180025.000,4334.2428,N,00128.0076,E,2,07,1.32,143.0,M,50.4,M,0000,0000*67
$GPGSA,A,3,13,30,28,05,20,07,15,,,,,,1.62,1.32,0.93*02
$GPGSV,3,1,10,05,61,203,43,13,61,311,47,28,50,109,35,30,47,054,45*7A
$GPGSV,3,2,10,20,41,299,45,39,34,147,,15,30,296,47,07,15,056,43*7C
$GPGSV,3,3,10,08,03,043,,24,03,242,*75
$GPRMC,180025.000,A,4334.2428,N,00128.0076,E,2.85,55.17,281116,,,D*57
$GPVTG,55.17,T,,M,2.85,N,5.27,K,D*01
$GPGGA,180026.000,4334.2433,N,00128.0084,E,2,07,1.32,143.1,M,50.4,M,0000,0000*62
$GPGSA,A,3,13,30,28,05,20,07,15,,,,,,1.62,1.32,0.93*02
$GPRMC,180026.000,A,4334.2433,N,00128.0084,E,2.81,53.78,281116,,,D*58
$GPVTG,53.78,T,,M,2.81,N,5.20,K,D*0D
$GPGGA,180027.000,4334.2438,N,00128.0092,E,2,07,1.32,143.1,M,50.4,M,0000,0000*6F
$GPGSA,A,3,13,30,28,05,20,07,15,,,,,,1.62,1.32,0.93*02
$GPRMC,180027.000,A,4334.2438,N,00128.0092,E,2.86,53.82,281116,,,D*57
$GPVTG,53.82,T,,M,2.86,N,5.30,K,D*0E
$GPGGA,180028.000,4334.2443,N,00128.0100,E,2,07,1.32,143.1,M,50.4,M,0000,0000*66
$GPGSA,A,3,13,30,28,05,20,07,15,,,,,,1.62,1.32,0.93*02
$GPRMC,180028.000,A,4334.2443,N,00128.0100,E,2.88,52.80,281116,,,D*53
$GPVTG,52.80,T,,M,2.88,N,5.34,K,D*07
$GPGGA,180029.000,4334.2448,N,00128.0109,E,2,07,1.32,143.2,M,50.4,M,0000,0000*66
$GPGSA,A,3,13,30,28,05,20,07,15,,,,,,1.62,1.32,0.93*02
$GPRMC,180029.000,A,4334.2448,N,00128.0109,E,2.85,54.38,281116,,,D*58
$GPVTG,54.38,T,,M,2.85,N,5.28,K,D*02
$GPGGA,180030.000,4334.2453,N,00128.0117,E,2,07,1.32,143.2,M,50.4,M,0000,0000*6B
$GPGSA,A,3,13,30,28,05,20,07,15,,,,,,1.62,1.32,0.93*02
$GPGSV,3,1,10,05,61,203,45,13,61,311,47,28,50,109,38,30,47,054,45*71
$GPGSV,3,2,10,20,41,299,47,39,34,147,,15,30,296,46,07,15,056,41*7D
$GPGSV,3,3,10,08,03,043,,24,03,242,*75
$GPRMC,180030.000,A,4334.2453,N,00128.0117,E,2.84,53.72,281116,,,D*5D
$GPVTG,53.72,T,,M,2.84,N,5.26,K,D*04
$GPGGA,180031.000,4334.2458,N,00128.0126,E,2,07,1.32,143.2,M,50.4,M,0000,0000*63
$GPGSA,A,3,13,30,28,05,20,07,15,,,,,,1.62,1.32,0.93*02
$GPRMC,180031.000,A,4334.2458,N,00128.0126,E,2.84,53.67,281116,,,D*51
$GPVTG,53.67,T,,M,2.84,N,5.27,K,D*01
$GPGGA,180032.000,4334.2463,N,00128.0134,E,2,07,1.32,143.3,M,50.4,M,0000,0000*6A
$GPGSA,A,3,13,30,28,05,20,07,15,,,,,,1.62,1.32,0.93*02
$GPRMC,180032.000,A,4334.2463,N,00128.0134,E,2.90,55.78,281116,,,D*54
$GPVTG,55.78,T,,M,2.90,N,5.37,K,D*0D
$GPGGA,180033.000,4334.2468,N,00128.0142,E,2,07,1.33,143.4,M,50.4,M,0000,0000*67
$GPGSA,A,3,13,30,28,05,20,07,15,,,,,,1.62,1.33,0.93*03
$GPRMC,180033.000,A,4334.2468,N,00128.0142,E,2.69,53.98,281116,,,D*51
$GPVTG,53.98,T,,M,2.69,N,4.99,K,D*06
$GPGGA,180034.000,4334.2473,N,00128.0150,E,2,07,1.32,143.5,M,50.4,M,0000,0000*69
$GPGSA,A,3,13,30,28,05,20,07,15,,,,,,1.62,1.32,0.93*02
$GPRMC,180034.000,A,4334.2473,N,00128.0150,E,2.83,53.03,281116,,,D*59
$GPVTG,53.03,T,,M,2.83,N,5.25,K,D*06
$GPGGA,180035.000,4334.2477,N,00128.0158,E,2,07,1.32,143.6,M,50.4,M,0000,0000*67
$GPGSA,A,3,13,30,28,05,20,07,15,,,,,,1.62,1.32,0.93*02
$GPGSV,3,1,10,05,61,203,42,13,61,311,44,28,50,109,37,30,47,054,41*7E
$GPGSV,3,2,10,20,41,299,43,15,30,296,44,07,15,056,37,40,10,109,*78
$GPGSV,3,3,10,08,03,043,,24,03,242,*75
$GPRMC,180035.000,A,4334.2477,N,00128.0158,E,2.60,53.17,281116,,,D*5C
$GPVTG,53.17,T,,M,2.60,N,4.83,K,D*03
$GPGGA,180036.000,4334.2482,N,00128.0166,E,2,07,1.32,143.6,M,50.4,M,0000,0000*63
$GPGSA,A,3,13,30,28,05,20,07,15,,,,,,1.62,1.32,0.93*02
$GPRMC,180036.000,A,4334.2482,N,00128.0166,E,2.78,54.14,281116,,,D*55
$GPVTG,54.14,T,,M,2.78,N,5.15,K,D*00
$GPGGA,180037.000,4334.2487,N,00128.0174,E,2,07,1.32,143.6,M,50.4,M,0000,0000*64
$GPGSA,A,3,13,30,28,05,20,07,15,,,,,,1.62,1.32,0.93*02
$GPRMC,180037.000,A,4334.2487,N,00128.0174,E,2.75,56.21,281116,,,D*5B
$GPVTG,56.21,T,,M,2.75,N,5.10,K,D*0C
$GPGGA,180038.000,4334.2492,N,00128.0182,E,2,07,1.32,143.7,M,50.4,M,0000,0000*67
$GPGSA,A,3,13,30,28,05,20,07,15,,,,,,1.62,1.32,0.93*02
$GPRMC,180038.000,A,4334.2492,N,00128.0182,E,2.71,55.18,281116,,,D*54
$GPVTG,55.18,T,,M,2.71,N,5.02,K,D*02
$GPGGA,180039.000,4334.2496,N,00128.0190,E,2,07,1.32,143.7,M,50.4,M,0000,0000*61
$GPGSA,A,3,13,30,28,05,20,07,15,,,,,,1.62,1.32,0.93*02
$GPRMC,180039.000,A,4334.2496,N,00128.0190,E,2.50,56.33,281116,,,D*5B
$GPVTG,56.33,T,,M,2.50,N,4.64,K,D*0A
$GPGGA,180040.000,4334.2500,N,00128.0197,E,2,07,1.32,143.7,M,50.4,M,0000,0000*66
$GPGSA,A,3,13,30,28,05,20,07,15,,,,,,1.62,1.32,0.93*02
$GPGSV,3,1,10,13,62,311,43,05,61,203,42,28,50,109,26,30,47,054,41*7A
$GPGSV,3,2,10,20,41,299,42,15,31,296,32,07,15,056,30,40,10,109,27*7B
$GPGSV,3,3,10,08,03,043,,24,03,242,*75
$GPRMC,180040.000,A,4334.2500,N,00128.0197,E,2.43,51.45,281116,,,D*58
$GPVTG,51.45,T,,M,2.43,N,4.50,K,D*09
$GPGGA,180041.000,4334.2504,N,00128.0204,E,2,07,1.32,143.7,M,50.4,M,0000,0000*6A
$GPGSA,A,3,13,30,28,05,20,07,15,,,,,,1.62,1.32,0.93*02
$GPRMC,180041.000,A,4334.2504,N,00128.0204,E,1.98,49.47,281116,,,D*5A
$GPVTG,49.47,T,,M,1.98,N,3.67,K,D*04
$GPGGA,180042.000,4334.2508,N,00128.0209,E,2,07,1.32,143.8,M,50.4,M,0000,0000*67
$GPGSA,A,3,13,30,28,05,20,07,15,,,,,,1.62,1.32,0.93*02
$GPRMC,180042.000,A,4334.2508,N,00128.0209,E,1.42,48.16,281116,,,D*5A
$GPVTG,48.16,T,,M,1.42,N,2.63,K,D*03
$GPGGA,180043.000,4334.2510,N,00128.0211,E,2,07,1.32,143.8,M,50.4,M,0000,0000*66
$GPGSA,A,3,13,30,28,05,20,07,15,,,,,,1.62,1.32,0.93*02
$GPRMC,180043.000,A,4334.2510,N,00128.0211,E,1.16,11.03,281116,,,D*52
$GPVTG,11.03,T,,M,1.16,N,2.15,K,D*0B
$GPGGA,180044.000,4334.2515,N,00128.0209,E,2,07,1.60,143.8,M,50.4,M,0000,0000*6A
$GPGSA,A,3,13,30,28,05,20,07,15,,,,,,2.97,1.60,2.51*00
$GPRMC,180044.000,A,4334.2515,N,00128.0209,E,1.74,344.44,281116,,,D*6D
$GPVTG,344.44,T,,M,1.74,N,3.22,K,D*3A
$GPGGA,180045.000,4334.2520,N,00128.0206,E,2,07,1.32,143.8,M,50.4,M,0000,0000*65
$GPGSA,A,3,13,30,28,05,20,07,15,,,,,,1.62,1.32,0.93*02
$GPGSV,3,1,10,13,62,311,41,05,61,203,40,28,50,109,37,30,47,054,35*79
$GPGSV,3,2,10,20,41,299,38,15,31,296,34,07,15,056,30,44,09,108,*78
$GPGSV,3,3,10,08,03,043,,24,03,242,*75
$GPRMC,180045.000,A,4334.2520,N,00128.0206,E,2.39,332.77,281116,,,D*6E
$GPVTG,332.77,T,,M,2.39,N,4.44,K,D*36
$GPGGA,180046.000,4334.2526,N,00128.0201,E,2,07,1.32,143.8,M,50.4,M,0000,0000*67
$GPGSA,A,3,13,30,28,05,20,07,15,,,,,,1.62,1.32,0.93*02
$GPRMC,180046.000,A,4334.2526,N,00128.0201,E,2.58,326.24,281116,,,D*68
$GPVTG,326.24,T,,M,2.58,N,4.77,K,D*32
$GPGGA,180047.000,4334.2532,N,00128.0196,E,2,07,1.32,143.8,M,50.4,M,0000,0000*6E
$GPGSA,A,3,13,30,28,05,20,07,15,,,,,,1.62,1.32,0.93*02
$GPRMC,180047.000,A,4334.2532,N,00128.0196,E,2.60,326.01,281116,,,D*6D
$GPVTG,326.01,T,,M,2.60,N,4.82,K,D*34
$GPGGA,180048.000,4334.2538,N,00128.0190,E,2,07,1.32,143.9,M,50.4,M,0000,0000*6C
$GPGSA,A,3,13,30,28,05,20,07,15,,,,,,1.62,1.32,0.93*02
$GPRMC,180048.000,A,4334.2538,N,00128.0190,E,2.73,328.04,281116,,,D*67
$GPVTG,328.04,T,,M,2.73,N,5.05,K,D*33
$GPGGA,180049.000,4334.2544,N,00128.0185,E,2,07,1.32,143.9,M,50.4,M,0000,0000*62
$GPGSA,A,3,13,30,28,05,20,07,15,,,,,,1.62,1.32,0.93*02
$GPRMC,180049.000,A,4334.2544,N,00128.0185,E,2.66,325.40,281116,,,D*60
$GPVTG,325.40,T,,M,2.66,N,4.92,K,D*35
$GPGGA,180050.000,4334.2550,N,00128.0179,E,2,07,1.32,143.9,M,50.4,M,0000,0000*6C
$GPGSA,A,3,13,30,28,05,20,07,15,,,,,,1.62,1.32,0.93*02
$GPGSV,3,1,10,13,62,311,39,05,61,203,41,28,50,109,40,30,47,054,36*74
$GPGSV,3,2,10,20,41,298,39,15,31,296,35,07,15,056,33,44,09,108,*7A
$GPGSV,3,3,10,24,04,242,,08,03,043,*72
$GPRMC,180050.000,A,4334.2550,N,00128.0179,E,2.70,326.30,281116,,,D*6D
$GPVTG,326.30,T,,M,2.70,N,5.01,K,D*3D
$GPGGA,180051.000,4334.2556,N,00128.0173,E,2,07,1.32,143.9,M,50.4,M,0000,0000*61
$GPGSA,A,3,13,30,28,05,20,07,15,,,,,,1.62,1.32,0.93*02
$GPRMC,180051.000,A,4334.2556,N,00128.0173,E,2.82,325.47,281116,,,D*6E
$GPVTG,325.47,T,,M,2.82,N,5.23,K,D*33
$GPGGA,180052.000,4334.2563,N,00128.0166,E,2,07,1.32,143.9,M,50.4,M,0000,0000*60
$GPGSA,A,3,13,30,28,05,20,07,15,,,,,,1.62,1.32,0.93*02
$GPRMC,180052.000,A,4334.2563,N,00128.0166,E,2.80,325.27,281116,,,D*6B
$GPVTG,325.27,T,,M,2.80,N,5.19,K,D*3E
$GPGGA,180053.000,4334.2569,N,00128.0160,E,2,07,1.32,144.0,M,50.4,M,0000,0000*63
$GPGSA,A,3,13,30,28,05,20,07,15,,,,,,1.62,1.32,0.93*02
$GPRMC,180053.000,A,4334.2569,N,00128.0160,E,2.83,324.49,281116,,,D*6C
$GPVTG,324.49,T,,M,2.83,N,5.24,K,D*3A
$GPGGA,180054.000,4334.2575,N,00128.0154,E,2,07,1.32,144.0,M,50.4,M,0000,0000*6E
$GPGSA,A,3,13,30,28,05,20,07,15,,,,,,1.62,1.32,0.93*02
$GPRMC,180054.000,A,4334.2575,N,00128.0154,E,2.80,323.54,281116,,,D*69
$GPVTG,323.54,T,,M,2.80,N,5.19,K,D*3C
$GPGGA,180055.000,4334.2581,N,00128.0147,E,2,07,1.32,144.0,M,50.4,M,0000,0000*66
$GPGSA,A,3,13,30,28,05,20,07,15,,,,,,1.62,1.32,0.93*02
$GPGSV,3,1,10,13,62,311,37,05,61,203,39,28,50,109,37,30,47,054,35*76
$GPGSV,3,2,10,20,41,298,37,33,36,203,,15,31,296,33,07,15,056,18*7F
$GPGSV,3,3,10,24,04,242,,08,03,043,*72
$GPRMC,180055.000,A,4334.2581,N,00128.0147,E,2.80,324.61,281116,,,D*60
$GPVTG,324.61,T,,M,2.80,N,5.20,K,D*37
$GPGGA,180056.000,4334.2587,N,00128.0141,E,2,07,1.32,144.1,M,50.4,M,0000,0000*64
$GPGSA,A,3,13,30,28,05,20,07,15,,,,,,1.62,1.32,0.93*02
$GPRMC,180056.000,A,4334.2587,N,00128.0141,E,2.82,324.41,281116,,,D*63
$GPVTG,324.41,T,,M,2.82,N,5.22,K,D*35
$GPGGA,180057.000,4334.2593,N,00128.0134,E,2,07,1.32,144.1,M,50.4,M,0000,0000*62
$GPGSA,A,3,13,30,28,05,20,07,15,,,,,,1.62,1.32,0.93*02
$GPRMC,180057.000,A,4334.2593,N,00128.0134,E,2.81,323.81,281116,,,D*6D
$GPVTG,323.81,T,,M,2.81,N,5.20,K,D*3F
$GPGGA,180058.000,4334.2599,N,00128.0128,E,2,07,1.32,144.1,M,50.4,M,0000,0000*6A
$GPGSA,A,3,13,30,28,05,20,07,15,,,,,,1.62,1.32,0.93*02
$GPRMC,180058.000,A,4334.2599,N,00128.0128,E,2.74,323.65,281116,,,D*65
$GPVTG,323.65,T,,M,2.74,N,5.08,K,D*35
$GPGGA,180059.000,4334.2605,N,00128.0122,E,2,07,1.32,144.2,M,50.4,M,0000,0000*64
$GPGSA,A,3,13,30,28,05,20,07,15,,,,,,1.62,1.32,0.93*02
$GPRMC,180059.000,A,4334.2605,N,00128.0122,E,2.74,323.98,281116,,,D*6A
$GPVTG,323.98,T,,M,2.74,N,5.08,K,D*37
$GPGGA,180100.000,4334.2612,N,00128.0115,E,2,07,1.32,144.1,M,50.4,M,0000,0000*68
$GPGSA,A,3,13,30,28,05,20,07,15,,,,,,1.62,1.32,0.93*02
$GPGSV,3,1,10,13,62,311,39,05,61,203,40,28,50,109,39,30,47,054,38*75
$GPGSV,3,2,10,20,41,298,39,33,36,203,,15,31,296,37,07,15,056,25*7B
$GPGSV,3,3,10,24,04,242,,08,03,043,*72
$GPRMC,180100.000,A,4334.2612,N,00128.0115,E,2.80,325.06,281116,,,D*6F
$GPVTG,325.06,T,,M,2.80,N,5.19,K,D*3D
$GPGGA,180101.000,4334.2618,N,00128.0109,E,2,07,1.32,144.1,M,50.4,M,0000,0000*6E
$GPGSA,A,3,13,30,28,05,20,07,15,,,,,,1.62,1.32,0.93*02
$GPRMC,180101.000,A,4334.2618,N,00128.0109,E,2.86,323.87,281116,,,D*60
$GPVTG,323.87,T,,M,2.86,N,5.29,K,D*37
$GPGGA,180102.000,4334.2623,N,00128.0100,E,2,07,1.32,144.3,M,50.4,M,0000,0000*6E
$GPGSA,A,3,13,30,28,05,20,07,15,,,,,,1.62,1.32,0.93*02
$GPRMC,180102.000,A,4334.2623,N,00128.0100,E,2.84,326.71,281116,,,D*6C
$GPVTG,326.71,T,,M,2.84,N,5.27,K,D*37
$GPGGA,180103.000,4334.2629,N,00128.0094,E,2,07,1.32,144.3,M,50.4,M,0000,0000*69
$GPGSA,A,3,13,30,28,05,20,07,15,,,,,,1.62,1.32,0.93*02
$GPRMC,180103.000,A,4334.2629,N,00128.0094,E,2.76,325.50,281116,,,D*66
$GPVTG,325.50,T,,M,2.76,N,5.12,K,D*3C
$GPGGA,180104.000,4334.2635,N,00128.0088,E,2,07,1.32,144.3,M,50.4,M,0000,0000*6E
$GPGSA,A,3,13,30,28,05,20,07,15,,,,,,1.62,1.32,0.93*02
$GPRMC,180104.000,A,4334.2635,N,00128.0088,E,2.68,325.18,281116,,,D*62
$GPVTG,325.18,T,,M,2.68,N,4.96,K,D*32
$GPGGA,180105.000,4334.2641,N,00128.0082,E,2,07,1.32,144.4,M,50.4,M,0000,0000*61
$GPGSA,A,3,13,30,28,05,20,07,15,,,,,,1.62,1.32,0.93*02
$GPGSV,3,1,10,13,62,311,40,05,61,203,42,28,50,109,41,30,47,054,39*77
$GPGSV,3,2,10,20,41,298,39,37,35,152,,15,31,296,38,07,15,056,24*75
$GPGSV,3,3,10,24,04,242,,08,03,043,*72
$GPRMC,180105.000,A,4334.2641,N,00128.0082,E,2.42,324.62,281116,,,D*6E
$GPVTG,324.62,T,,M,2.42,N,4.49,K,D*34
$GPGGA,180106.000,4334.2646,N,00128.0077,E,2,07,1.32,144.4,M,50.4,M,0000,0000*6F
$GPGSA,A,3,13,30,28,05,20,07,15,,,,,,1.62,1.32,0.93*02
$GPRMC,180106.000,A,4334.2646,N,00128.0077,E,1.88,322.07,281116,,,D*60
$GPVTG,322.07,T,,M,1.88,N,3.49,K,D*33
$GPGGA,180107.000,4334.2649,N,00128.0074,E,2,07,1.32,144.4,M,50.4,M,0000,0000*62
$GPGSA,A,3,13,30,28,05,20,07,15,,,,,,1.62,1.32,0.93*02
$GPRMC,180107.000,A,4334.2649,N,00128.0074,E,1.21,327.42,281116,,,D*6A
$GPVTG,327.42,T,,M,1.21,N,2.25,K,D*3F
$GPGGA,180108.000,4334.2651,N,00128.0072,E,2,07,1.32,144.4,M,50.4,M,0000,0000*62
$GPGSA,A,3,13,30,28,05,20,07,15,,,,,,1.62,1.32,0.93*02
$GPRMC,180108.000,A,4334.2651,N,00128.0072,E,0.34,320.92,281116,,,D*65
$GPVTG,320.92,T,,M,0.34,N,0.64,K,D*37
$GPGGA,180109.000,4334.2652,N,00128.0071,E,2,07,1.32,144.5,M,50.4,M,0000,0000*62
$GPGSA,A,3,13,30,28,05,20,07,15,,,,,,1.62,1.32,0.93*02
$GPRMC,180109.000,A,4334.2652,N,00128.0071,E,0.05,345.84,281116,,,D*62
$GPVTG,345.84,T,,M,0.05,N,0.09,K,D*3A
