0,0000$GPGGA,091957.000,4334.2343,N,00128.0083,E,2,09,1.06,162.3,M,50.4,M,0000,0000*63

$GPGSA,A,3,08,11,32,27,10,22,14,01,03,,,,2.24,1.06,1.98*0B

$GPRMC,091957.000,A,4334.2343,N,00128.0083,E,0.00,323.18,171116,,,D*64

$GPVTG,323.18,T,,M,0.00,N,0.01,K,D*32

$GPGSA,A,3,08,11,32,27,10,22,14,01,03,,,,2.24,1.06,1.98*0B
83,E,2,09,1.06,162.3,M,50.4,M,0000,0000*63
$GPRMC,091957.000,A,4334.2343,N,00128.0083,E,0.00,323.18,171116,,,D*64
06,162.3,M,50.4,M,0000,0000*63
$GPVTG,323.18,T,,M,0.00,N,0.01,K,D*32
0083,E,0.00,323.18,171116,,,D*64
06,162.3,M,50.4,M,0000,0000*63
$GPGSA,A,3,08,11,32,27,10,22,14,01,03,,,,2.24,1.06,1.98*0B
1116,,,D*64
06,162.3,M,50.4,M,0000,0000*63
$GPRMC,091957.000,A,4334.2343,N,00128.0083,E,0.00,323.18,171116,,,D*64
06,162.3,M,50.4,M,0000,0000*63
$GPVTG,323.18,T,,M,0.00,N,0.01,K,D*32
0083,E,0.00,323.18,171116,,,D*64
06,162.3,M,50.4,M,0000,0000*63
$GPGGA,091958.000,4334.2343,N,00128.0083,E,2,09,1.06,162.3,M,50.4,M,0000,0000*6C

$GPGSA,A,3,08,11,32,27,10,22,14,01,03,,,,2.24,1.06,1.98*0B

$GPRMC,091958.000,A,4334.2343,N,00128.0083,E,0.01,347.06,171116,,,D*67

$GPVTG,347.06,T,,M,0.01,N,0.01,K,D*3E

$GPGSA,A,3,08,11,32,27,10,22,14,01,03,,,,2.24,1.06,1.98*0B
ÿÿÿ
$GPRMC,091957.000,A,4334.2343,N,00128.0083,E,0.00,323.18,171116,,,D*64
$GPVTG,323.18,T,,M,0.00,N,0.01,K,D*32
0083,E,0.00,323.18,171116,,,D*64
$GPGGA,091958.000,4334.2343,N,00128.0083,E,2,09,1.06,162.3,M,50.4,M,0000,0000*6C
$GPGSA,A,3,08,11,32,27,10,22,14,01,03,,,,2.24,1.06,1.98*0B
M,50.4,M,0000,0000*6C
$GPRMC,091958.000,A,4334.2343,N,00128.0083,E,0.01,347.06,171116,,,D*67
0,0000*6C
$GPVTG,347.06,T,,M,0.01,N,0.01,K,D*3E
0083,E,0.01,347.06,171116,,,D*67
0,0000*6C
$GPGSA,A,3,08,11,32,27,10,22,14,01,03,,,,2.24,1.06,1.98*0B
1116,,,D*67
0,0000*6C
$GPRMC,091957.000,A,4334.2343,N,00128.0083,E,0.00,323.18,171116,,,D*64
0,0000*6C
$GPVTG,323.18,T,,M,0.00,N,0.01,K,D*32
0083,E,0.00,323.18,171116,,,D*64
0,0000*6C
$GPGGA,091958.000,4334.2343,N,00128.0083,E,2,09,1.06,162.3,M,50.4,M,0000,0000*6C
$GPGGA,091959.000,4334.2343,N,00128.0083,E,2,09,1.06,162.3,M,50.4,M,0000,0000*6D

$GPGSA,A,3,08,11,32,27,10,22,14,01,03,,,,2.25,1.06,1.98*0A

$GPRMC,091959.000,A,4334.2343,N,00128.0083,E,0.00,234.20,171116,,,D*66

$GPVTG,234.20,T,,M,0.00,N,0.01,K,D*3E

$GPGSA,A,3,08,11,32,27,10,22,14,01,03,,,,2.24,1.06,1.98*0B
ÿÿÿ
$GPRMC,091958.000,A,4334.2343,N,00128.0083,E,0.01,347.06,171116,,,D*67
$GPVTG,347.06,T,,M,0.01,N,0.01,K,D*3E
0083,E,0.01,347.06,171116,,,D*67
$GPGSA,A,3,08,11,32,27,10,22,14,01,03,,,,2.24,1.06,1.98*0B
1116,,,D*67
$GPRMC,091957.000,A,4334.2343,N,00128.0083,E,0.00,323.18,171116,,,D*64
$GPVTG,323.18,T,,M,0.00,N,0.01,K,D*32
0083,E,0.00,323.18,171116,,,D*64
$GPGGA,091958.000,4334.2343,N,00128.0083,E,2,09,1.06,162.3,M,50.4,M,0000,0000*6C
$GPGGA,091959.000,4334.2343,N,00128.0083,E,2,09,1.06,162.3,M,50.4,M,0000,0000*6D
$GPGSA,A,3,08,11,32,27,10,22,14,01,03,,,,2.25,1.06,1.98*0A
M,50.4,M,0000,0000*6D
$GPRMC,091959.000,A,4334.2343,N,00128.0083,E,0.00,234.20,171116,,,D*66
0,0000*6D
$GPVTG,234.20,T,,M,0.00,N,0.01,K,D*3E
0083,E,0.00,234.20,171116,,,D*66
0,0000*6D
$GPGSA,A,3,08,11,32,27,10,22,14,01,03,,,,2.24,1.06,1.98*0B
1116,,,D*66
0,0000*6D
$GPGGA,092000.000,4334.2343,N,00128.0083,E,2,08,1.10,162.3,M,50.4,M,0000,0000*6D

$GPGSA,A,3,08,11,32,27,10,14,01,03,,,,,2.27,1.10,1.98*0F

$GPRMC,092000.000,A,4334.2343,N,00128.0083,E,0.01,359.20,171116,,,D*6B

$GPVTG,359.20,T,,M,0.01,N,0.01,K,D*35

$GPRMC,091958.000,A,4334.2343,N,00128.0083,E,0.01,347.06,171116,,,D*67
$GPVTG,347.06,T,,M,0.01,N,0.01,K,D*3E
0083,E,0.01,347.06,171116,,,D*67
$GPGSA,A,3,08,11,32,27,10,22,14,01,03,,,,2.24,1.06,1.98*0B
1116,,,D*67
$GPRMC,091957.000,A,4334.2343,N,00128.0083,E,0.00,323.18,171116,,,D*64
$GPVTG,323.18,T,,M,0.00,N,0.01,K,D*32
0083,E,0.00,323.18,171116,,,D*64
$GPGGA,091958.000,4334.2343,N,00128.0083,E,2,09,1.06,162.3,M,50.4,M,0000,0000*6C
$GPGGA,091959.000,4334.2343,N,00128.0083,E,2,09,1.06,162.3,M,50.4,M,0000,0000*6D
$GPGSA,A,3,08,11,32,27,10,22,14,01,03,,,,2.25,1.06,1.98*0A
M,50.4,M,0000,0000*6D
$GPRMC,091959.000,A,4334.2343,N,00128.0083,E,0.00,234.20,171116,,,D*66
0,0000*6D
$GPVTG,234.20,T,,M,0.00,N,0.01,K,D*3E
0083,E,0.00,234.20,171116,,,D*66
0,0000*6D
$GPGSA,A,3,08,11,32,27,10,22,14,01,03,,,,2.24,1.06,1.98*0B
1116,,,D*66
0,0000*6D
$GPGGA,092000.000,4334.2343,N,00128.0083,E,2,08,1.10,162.3,M,50.4,M,0000,0000*6D
$GPGGA,092001.000,4334.2343,N,00128.0083,E,2,09,1.06,162.3,M,50.4,M,0000,0000*6A

$GPGSA,A,3,08,11,32,27,10,22,14,01,03,,,,2.24,1.06,1.98*0B

$GPGSV,3,1,11,08,78,171,41,11,64,303,26,01,50,289,31,22,43,218,17*77

$GPGSV,3,2,11,27,36,141,48,33,36,203,40,32,33,084,48,14,29,116,44*79

$GPGSV,3,3,11,10,26,049,28,03,24,220,33,28,23,312,25*42

$GPRMC,092001.000,A,4334.2343,N,00128.0083,E,0.01,226.49,171116,,,D*6C

$GPVTG,226.49,T,,M,0.01,N,0.02,K,D*30

$GPGSA,A,3,08,11,32,27,10,14,01,03,,,,,2.27,1.10,1.98*0F
ÿÿÿÿÿ
$GPRMC,092000.000,A,4334.2343,N,00128.0083,E,0.01,359.20,171116,,,D*6B
$GPVTG,359.20,T,,M,0.01,N,0.01,K,D*35
0083,E,0.01,359.20,171116,,,D*6B
$GPRMC,091958.000,A,4334.2343,N,00128.0083,E,0.01,347.06,171116,,,D*67
$GPVTG,347.06,T,,M,0.01,N,0.01,K,D*3E
0083,E,0.01,347.06,171116,,,D*67
$GPGSA,A,3,08,11,32,27,10,22,14,01,03,,,,2.24,1.06,1.98*0B
1116,,,D*67
$GPRMC,091957.000,A,4334.2343,N,00128.0083,E,0.00,323.18,171116,,,D*64
$GPVTG,323.18,T,,M,0.00,N,0.01,K,D*32
0083,E,0.00,323.18,171116,,,D*64
$GPGGA,091958.000,4334.2343,N,00128.0083,E,2,09,1.06,162.3,M,50.4,M,0000,0000*6C
$GPGGA,091959.000,4334.2343,N,00128.0083,E,2,09,1.06,162.3,M,50.4,M,0000,0000*6D
$GPGSA,A,3,08,11,32,27,10,22,14,01,03,,,,2.25,1.06,1.98*0A
M,50.4,M,0000,0000*6D
$GPRMC,091959.000,A,4334.2343,N,00128.0083,E,0.00,234.20,171116,,,D*66
0,0000*6D
$GPVTG,234.20,T,,M,0.00,N,0.01,K,D*3E
0083,E,0.00,234.20,171116,,,D*66
0,0000*6D
$GPGSA,A,3,08,11,32,27,10,22,14,01,03,,,,2.24,1.06,1.98*0B
1116,,,D*66
0,0000*6D
$GPGGA,092002.000,4334.2343,N,00128.0083,E,2,09,1.06,162.3,M,50.4,M,0000,0000*69

$GPGSA,A,3,08,11,32,27,10,22,14,01,03,,,,2.25,1.06,1.98*0A

$GPRMC,092002.000,A,4334.2343,N,00128.0083,E,0.01,44.10,171116,,,D*55

$GPVTG,44.10,T,,M,0.01,N,0.01,K,D*09

$GPGGA,092000.000,4334.2343,N,00128.0083,E,2,08,1.10,162.3,M,50.4,M,0000,0000*6D
$GPGGA,092001.000,4334.2343,N,00128.0083,E,2,09,1.06,162.3,M,50.4,M,0000,0000*6A
$GPGSA,A,3,08,11,32,27,10,22,14,01,03,,,,2.24,1.06,1.98*0B
M,50.4,M,0000,0000*6A
$GPGSV,3,1,11,08,78,171,41,11,64,303,26,01,50,289,31,22,43,218,17*77
000,0000*6A
$GPGSV,3,2,11,27,36,141,48,33,36,203,40,32,33,084,48,14,29,116,44*79
000,0000*6A
$GPGSV,3,3,11,10,26,049,28,03,24,220,33,28,23,312,25*42
29,116,44*79
000,0000*6A
$GPRMC,092001.000,A,4334.2343,N,00128.0083,E,0.01,226.49,171116,,,D*6C
0,0000*6A
$GPVTG,226.49,T,,M,0.01,N,0.02,K,D*30
0083,E,0.01,226.49,171116,,,D*6C
0,0000*6A
$GPGSA,A,3,08,11,32,27,10,14,01,03,,,,,2.27,1.10,1.98*0F
171116,,,D*6C
0,0000*6A
$GPRMC,092000.000,A,4334.2343,N,00128.0083,E,0.01,359.20,171116,,,D*6B
0,0000*6A
$GPVTG,359.20,T,,M,0.01,N,0.01,K,D*35
0083,E,0.01,359.20,171116,,,D*6B
0,0000*6A
$GPRMC,091958.000,A,4334.2343,N,00128.0083,E,0.01,347.06,171116,,,D*67
0,0000*6A
$GPVTG,347.06,T,,M,0.01,N,0.01,K,D*3E
0083,E,0.01,347.06,171116,,,D*67
0,0000*6A
$GPGGA,092003.000,4334.2342,N,00128.0083,E,2,09,1.06,162.3,M,50.4,M,0000,0000*69

$GPGSA,A,3,08,11,32,27,10,22,14,01,03,,,,2.24,1.06,1.98*0B

$GPRMC,092003.000,A,4334.2342,N,00128.0083,E,0.00,298.21,171116,,,D*65

$GPVTG,298.21,T,,M,0.00,N,0.01,K,D*39

$GPGSA,A,3,08,11,32,27,10,22,14,01,03,,,,2.24,1.06,1.98*0B
ÿÿÿ
$GPRMC,091957.000,A,4334.2343,N,00128.0083,E,0.00,323.18,171116,,,D*64
$GPVTG,323.18,T,,M,0.00,N,0.01,K,D*32
0083,E,0.00,323.18,171116,,,D*64
$GPGGA,091958.000,4334.2343,N,00128.0083,E,2,09,1.06,162.3,M,50.4,M,0000,0000*6C
$GPGGA,091959.000,4334.2343,N,00128.0083,E,2,09,1.06,162.3,M,50.4,M,0000,0000*6D
$GPGSA,A,3,08,11,32,27,10,22,14,01,03,,,,2.25,1.06,1.98*0A
M,50.4,M,0000,0000*6D
$GPRMC,091959.000,A,4334.2343,N,00128.0083,E,0.00,234.20,171116,,,D*66
.h}Š?€$GPVTG,234.20,T,,M,0.00,N,0.01,K,D*3E
0083,E,0.00,234.20,171116,,,D*66
.h}Š?€$GPGSA,A,3,08,11,32,27,10,22,14,01,03,,,,2.24,1.06,1.98*0B
1116,,,D*66
.h}Š?€$GPGGA,092002.000,4334.2343,N,00128.0083,E,2,09,1.06,162.3,M,50.4,M,0000,0000*69
€$GPGSA,A,3,08,11,32,27,10,22,14,01,03,,,,2.25,1.06,1.98*0A
M,50.4,M,0000,0000*69
€$GPRMC,092002.000,A,4334.2343,N,00128.0083,E,0.01,44.10,171116,,,D*55
00,0000*69
€$GPGGA,092004.000,4334.2342,N,00128.0083,E,2,09,1.06,162.4,M,50.4,M,0000,0000*69

$GPGSA,A,3,08,11,32,27,10,22,14,01,03,,,,2.24,1.06,1.98*0B

$GPRMC,092004.000,A,4334.2342,N,00128.0083,E,0.00,55.70,171116,,,D*55

$GPVTG,55.70,T,,M,0.00,N,0.00,K,D*0F

$GPVTG,44.10,T,,M,0.01,N,0.01,K,D*09
ÿÿÿÿÿÿÿÿÿÿÿÿÿÿÿÿÿÿÿÿÿÿÿÿÿ
$GPGGA,092000.000,4334.2343,N,00128.0083,E,2,08,1.10,162.3,M,50.4,M,0000,0000*6D
$GPGGA,092001.000,4334.2343,N,00128.0083,E,2,09,1.06,162.3,M,50.4,M,0000,0000*6A
$GPGSA,A,3,08,11,32,27,10,22,14,01,03,,,,2.24,1.06,1.98*0B
M,50.4,M,0000,0000*6A
$GPGSV,3,1,11,08,78,171,41,11,64,303,26,01,50,289,31,22,43,218,17*77
000,0000*6A
$GPGSV,3,2,11,27,36,141,48,33,36,203,40,32,33,084,48,14,29,116,44*79
000,0000*6A
$GPGSV,3,3,11,10,26,049,28,03,24,220,33,28,23,312,25*42
29,116,44*79
000,0000*6A
$GPRMC,092001.000,A,4334.2343,N,00128.0083,E,0.01,226.49,171116,,,D*6C
0,0000*6A
$GPVTG,226.49,T,,M,0.01,N,0.02,K,D*30
0083,E,0.01,226.49,171116,,,D*6C
0,0000*6A
$GPGSA,A,3,08,11,32,27,10,14,01,03,,,,,2.27,1.10,1.98*0F
171116,,,D*6C
0,0000*6A
$GPRMC,092000.000,A,4334.2343,N,00128.0083,E,0.01,359.20,171116,,,D*6B
0,0000*6A
$GPVTG,359.20,T,,M,0.01,N,0.01,K,D*35
0083,E,0.01,359.20,171116,,,D*6B
0,0000*6A
$GPGGA,092005.000,4334.2342,N,00128.0083,E,2,09,1.06,162.4,M,50.4,M,0000,0000*68

$GPGSA,A,3,08,11,32,27,10,22,14,01,03,,,,2.25,1.06,1.98*0A

$GPRMC,092005.000,A,4334.2342,N,00128.0083,E,0.00,257.97,171116,,,D*6D

$GPVTG,257.97,T,,M,0.00,N,0.01,K,D*37

$GPRMC,091958.000,A,4334.2343,N,00128.0083,E,0.01,347.06,171116,,,D*67
$GPVTG,347.06,T,,M,0.01,N,0.01,K,D*3E
0083,E,0.01,347.06,171116,,,D*67
$GPGGA,092003.000,4334.2342,N,00128.0083,E,2,09,1.06,162.3,M,50.4,M,0000,0000*69
$GPGSA,A,3,08,11,32,27,10,22,14,01,03,,,,2.24,1.06,1.98*0B
M,50.4,M,0000,0000*69
$GPRMC,092003.000,A,4334.2342,N,00128.0083,E,0.00,298.21,171116,,,D*65
0,0000*69
$GPVTG,298.21,T,,M,0.00,N,0.01,K,D*39
0083,E,0.00,298.21,171116,,,D*65
0,0000*69
$GPGSA,A,3,08,11,32,27,10,22,14,01,03,,,,2.24,1.06,1.98*0B
1116,,,D*65
0,0000*69
$GPRMC,091957.000,A,4334.2343,N,00128.0083,E,0.00,323.18,171116,,,D*64
0,0000*69
$GPVTG,323.18,T,,M,0.00,N,0.01,K,D*32
0083,E,0.00,323.18,171116,,,D*64
0,0000*69
$GPGGA,091958.000,4334.2343,N,00128.0083,E,2,09,1.06,162.3,M,50.4,M,0000,0000*6C
$GPGSA,A,3,08,11,32,27,10,22,14,01,03,,,,2.24,1.06,1.98*0B
GPVTG,234.20,T,,M,0.00,N,0.01,K,D*3E
$GPGGA,092006.000,4334.2343,N,00128.0084,E,2,09,1.06,162.4,M,50.4,M,0000,0000*6D

$GPGSA,A,3,08,11,32,27,10,22,14,01,03,,,,2.24,1.06,1.98*0B

$GPGSV,3,1,11,08,78,171,41,11,64,303,26,01,50,289,30,22,43,218,27*75

$GPGSV,3,2,11,27,36,141,48,33,36,203,40,32,33,084,48,14,29,116,44*79

$GPGSV,3,3,11,10,26,049,28,28,24,312,24,03,24,220,31*46

$GPRMC,092006.000,A,4334.2343,N,00128.0084,E,0.01,7.06,171116,,,D*66

$GPVTG,7.06,T,,M,0.01,N,0.02,K,D*3A

$GPGGA,092002.000,4334.2343,N,00128.0083,E,2,09,1.06,162.3,M,50.4,M,0000,0000*69
$GPGSA,A,3,08,11,32,27,10,22,14,01,03,,,,2.25,1.06,1.98*0A
M,50.4,M,0000,0000*69
$GPRMC,092002.000,A,4334.2343,N,00128.0083,E,0.01,44.10,171116,,,D*55
00,0000*69
$GPGGA,092004.000,4334.2342,N,00128.0083,E,2,09,1.06,162.4,M,50.4,M,0000,0000*69
$GPGSA,A,3,08,11,32,27,10,22,14,01,03,,,,2.24,1.06,1.98*0B
M,50.4,M,0000,0000*69
$GPRMC,092004.000,A,4334.2342,N,00128.0083,E,0.00,55.70,171116,,,D*55
00,0000*69
$GPVTG,55.70,T,,M,0.00,N,0.00,K,D*0F
.0083,E,0.00,55.70,171116,,,D*55
00,0000*69
$GPVTG,44.10,T,,M,0.01,N,0.01,K,D*09
.0083,E,0.00,55.70,171116,,,D*55
00,0000*69
$GPGGA,092000.000,4334.2343,N,00128.0083,E,2,08,1.10,162.3,M,50.4,M,0000,0000*6D
$GPGGA,092001.000,4334.2343,N,00128.0083,E,2,09,1.06,162.3,M,50.4,M,0000,0000*6A
$GPGSA,A,3,08,11,32,27,10,22,14,01,03,,,,2.24,1.06,1.98*0B
M,50.4,M,0000,0000*6A
$GPGSV,3,1,11,08,78,171,41,11,64,303,26,01,50,289,31,22,43,218,17*77
000,0000*6A
$GPGSV,3,2,11,27,36,141,48,33,36,203,40,32,33,084,48,14,29,116,44*79
000,0000*6A
$GPGGA,092007.000,4334.2342,N,00128.0084,E,2,09,1.06,162.4,M,50.4,M,0000,0000*6D

$GPGSA,A,3,08,11,32,27,10,22,14,01,03,,,,2.24,1.06,1.98*0B

$GPRMC,092007.000,A,4334.2342,N,00128.0084,E,0.00,22.52,171116,,,D*51

$GPVTG,22.52,T,,M,0.00,N,0.01,K,D*0E

$GPGSV,3,3,11,10,26,049,28,03,24,220,33,28,23,312,25*42
ÿÿÿÿÿÿ
$GPRMC,092001.000,A,4334.2343,N,00128.0083,E,0.01,226.49,171116,,,D*6C
$GPVTG,226.49,T,,M,0.01,N,0.02,K,D*30
0083,E,0.01,226.49,171116,,,D*6C
$GPGSA,A,3,08,11,32,27,10,14,01,03,,,,,2.27,1.10,1.98*0F
171116,,,D*6C
$GPRMC,092000.000,A,4334.2343,N,00128.0083,E,0.01,359.20,171116,,,D*6B
$GPVTG,359.20,T,,M,0.01,N,0.01,K,D*35
0083,E,0.01,359.20,171116,,,D*6B
$GPGGA,092005.000,4334.2342,N,00128.0083,E,2,09,1.06,162.4,M,50.4,M,0000,0000*68
$GPGSA,A,3,08,11,32,27,10,22,14,01,03,,,,2.25,1.06,1.98*0A
M,50.4,M,0000,0000*68
$GPRMC,092005.000,A,4334.2342,N,00128.0083,E,0.00,257.97,171116,,,D*6D
0,0000*68
$GPVTG,257.97,T,,M,0.00,N,0.01,K,D*37
0083,E,0.00,257.97,171116,,,D*6D
0,0000*68
$GPRMC,091958.000,A,4334.2343,N,00128.0083,E,0.01,347.06,171116,,,D*67
0,0000*68
$GPVTG,347.06,T,,M,0.01,N,0.01,K,D*3E
0083,E,0.01,347.06,171116,,,D*67
0,0000*68
$GPGGA,092008.000,4334.2342,N,00128.0084,E,2,09,1.06,162.5,M,50.4,M,0000,0000*63

$GPGSA,A,3,08,11,32,27,10,22,14,01,03,,,,2.25,1.06,1.98*0A

$GPRMC,092008.000,A,4334.2342,N,00128.0084,E,0.01,56.91,171116,,,D*53

$GPVTG,56.91,T,,M,0.01,N,0.02,K,D*00

$GPGGA,092003.000,4334.2342,N,00128.0083,E,2,09,1.06,162.3,M,50.4,M,0000,0000*69
$GPGSA,A,3,08,11,32,27,10,22,14,01,03,,,,2.24,1.06,1.98*0B
M,50.4,M,0000,0000*69
$GPRMC,092003.000,A,4334.2342,N,00128.0083,E,0.00,298.21,171116,,,D*65
0,0000*69
$GPVTG,298.21,T,,M,0.00,N,0.01,K,D*39
0083,E,0.00,298.21,171116,,,D*65
0,0000*69
$GPGSA,A,3,08,11,32,27,10,22,14,01,03,,,,2.24,1.06,1.98*0B
1116,,,D*65
0,0000*69
$GPRMC,091957.000,A,4334.2343,N,00128.0083,E,0.00,323.18,171116,,,D*64
0,0000*69
$GPVTG,323.18,T,,M,0.00,N,0.01,K,D*32
0083,E,0.00,323.18,171116,,,D*64
0,0000*69
$GPGGA,091958.000,4334.2343,N,00128.0083,E,2,09,1.06,162.3,M,50.4,M,0000,0000*6C
$GPGSA,A,3,08,11,32,27,10,22,14,01,03,,,,2.24,1.06,1.98*0B
M,50.4,M,0000,0000*6C
$GPGGA,092006.000,4334.2343,N,00128.0084,E,2,09,1.06,162.4,M,50.4,M,0000,0000*6D
$GPGSA,A,3,08,11,32,27,10,22,14,01,03,,,,2.24,1.06,1.98*0B
M,50.4,M,0000,0000*6D
$GPGGA,092009.000,4334.2342,N,00128.0084,E,2,09,1.06,162.5,M,50.4,M,0000,0000*62

$GPGSA,A,3,08,11,32,27,10,22,14,01,03,,,,2.24,1.06,1.98*0B

$GPRMC,092009.000,A,4334.2342,N,00128.0084,E,0.00,68.48,171116,,,D*5A

$GPVTG,68.48,T,,M,0.00,N,0.01,K,D*0B

$GPGSV,3,1,11,08,78,171,41,11,64,303,26,01,50,289,30,22,43,218,27*75
$GPGSV,3,2,11,27,36,141,48,33,36,203,40,32,33,084,48,14,29,116,44*79
$GPGSV,3,3,11,10,26,049,28,28,24,312,24,03,24,220,31*46
29,116,44*79
$GPRMC,092006.000,A,4334.2343,N,00128.0084,E,0.01,7.06,171116,,,D*66
$GPVTG,7.06,T,,M,0.01,N,0.02,K,D*3A
8.0084,E,0.01,7.06,171116,,,D*66
$GPGGA,092002.000,4334.2343,N,00128.0083,E,2,09,1.06,162.3,M,50.4,M,0000,0000*69
$GPGSA,A,3,08,11,32,27,10,22,14,01,03,,,,2.25,1.06,1.98*0A
M,50.4,M,0000,0000*69
$GPRMC,092002.000,A,4334.2343,N,00128.0083,E,0.01,44.10,171116,,,D*55
3g$GPGGA,092004.000,4334.2342,N,00128.0083,E,2,09,1.06,162.4,M,50.4,M,0000,0000*69
`9ìì$GPGSA,A,3,08,11,32,27,10,22,14,01,03,,,,2.24,1.06,1.98*0B
M,50.4,M,0000,0000*69
`9ìì$GPRMC,092004.000,A,4334.2342,N,00128.0083,E,0.00,55.70,171116,,,D*55
00,0000*69
`9ìì$GPVTG,55.70,T,,M,0.00,N,0.00,K,D*0F
.0083,E,0.00,55.70,171116,,,D*55
00,0000*69
`9ìì$GPVTG,44.10,T,,M,0.01,N,0.01,K,D*09
.0083,E,0.00,55.70,171116,,,D*55
00,0000*69
`9ìì$GPGGA,092010.000,4334.2342,N,00128.0084,E,2,09,1.06,162.6,M,50.4,M,0000,0000*69

$GPGSA,A,3,08,11,32,27,10,22,14,01,03,,,,2.24,1.06,1.98*0B

$GPRMC,092010.000,A,4334.2342,N,00128.0084,E,0.01,10.68,171116,,,D*5E

$GPVTG,10.68,T,,M,0.01,N,0.01,K,D*07

$GPGGA,092000.000,4334.2343,N,00128.0083,E,2,08,1.10,162.3,M,50.4,M,0000,0000*6D
$GPGGA,092001.000,4334.2343,N,00128.0083,E,2,09,1.06,162.3,M,50.4,M,0000,0000*6A
$GPGSA,A,3,08,11,32,27,10,22,14,01,03,,,,2.24,1.06,1.98*0B
M,50.4,M,0000,0000*6A
$GPGSV,3,1,11,08,78,171,41,11,64,303,26,01,50,289,31,22,43,218,17*77
000,0000*6A
$GPGSV,3,2,11,27,36,141,48,33,36,203,40,32,33,084,48,14,29,116,44*79
000,0000*6A
$GPGGA,092007.000,4334.2342,N,00128.0084,E,2,09,1.06,162.4,M,50.4,M,0000,0000*6D
$GPGSA,A,3,08,11,32,27,10,22,14,01,03,,,,2.24,1.06,1.98*0B
M,50.4,M,0000,0000*6D
$GPRMC,092007.000,A,4334.2342,N,00128.0084,E,0.00,22.52,171116,,,D*51
00,0000*6D
$GPVTG,22.52,T,,M,0.00,N,0.01,K,D*0E
.0084,E,0.00,22.52,171116,,,D*51
00,0000*6D
$GPGSV,3,3,11,10,26,049,28,03,24,220,33,28,23,312,25*42
171116,,,D*51
00,0000*6D
$GPRMC,092001.000,A,4334.2343,N,00128.0083,E,0.01,226.49,171116,,,D*6C
0,0000*6D
$GPVTG,226.49,T,,M,0.01,N,0.02,K,D*30
0083,E,0.01,226.49,171116,,,D*6C
0,0000*6D
$GPGSA,A,3,08,11,32,27,10,14,01,03,,,,,2.27,1.10,1.98*0F
171116,,,D*6C
0,0000*6D
$GPGGA,092011.000,4334.2342,N,00128.0084,E,2,09,1.06,162.6,M,50.4,M,0000,0000*68

$GPGSA,A,3,08,11,32,27,10,22,14,01,03,,,,2.25,1.06,1.98*0A

$GPGSV,3,1,11,08,78,171,39,11,64,303,25,01,50,289,30,22,43,218,28*76

$GPGSV,3,2,11,27,36,141,48,33,36,203,40,32,33,084,48,14,29,116,45*78

$GPGSV,3,3,11,10,26,049,28,28,24,312,25,03,24,220,33*45

$GPRMC,092011.000,A,4334.2342,N,00128.0084,E,0.01,322.84,171116,,,D*6F

$GPVTG,322.84,T,,M,0.01,N,0.02,K,D*34

$GPRMC,092000.000,A,4334.2343,N,00128.0083,E,0.01,359.20,171116,,,D*6B
$GPVTG,359.20,T,,M,0.01,N,0.01,K,D*35
0083,E,0.01,359.20,171116,,,D*6B
$GPGGA,092005.000,4334.2342,N,00128.0083,E,2,09,1.06,162.4,M,50.4,M,0000,0000*68
$GPGSA,A,3,08,11,32,27,10,22,14,01,03,,,,2.25,1.06,1.98*0A
M,50.4,M,0000,0000*68
$GPRMC,092005.000,A,4334.2342,N,00128.0083,E,0.00,257.97,171116,,,D*6D
0,0000*68
$GPVTG,257.97,T,,M,0.00,N,0.01,K,D*37
0083,E,0.00,257.97,171116,,,D*6D
0,0000*68
$GPRMC,091958.000,A,4334.2343,N,00128.0083,E,0.01,347.06,171116,,,D*67
0,0000*68
$GPVTG,347.06,T,,M,0.01,N,0.01,K,D*3E
0083,E,0.01,347.06,171116,,,D*67
0,0000*68
$GPGGA,092008.000,4334.2342,N,00128.0084,E,2,09,1.06,162.5,M,50.4,M,0000,0000*63
$GPGSA,A,3,08,11,32,27,10,22,14,01,03,,,,2.25,1.06,1.98*0A
M,50.4,M,0000,0000*63
$GPRMC,092008.000,A,4334.2342,N,00128.0084,E,0.01,56.91,171116,,,D*53
00,0000*63
$GPVTG,56.91,T,,M,0.01,N,0.02,K,D*00
.0084,E,0.01,56.91,171116,,,D*53
00,0000*63
$GPGGA,092003.000,4334.2342,N,00128.0083,E,2,09,1.06,162.3,M,50.4,M,0000,0000*69
$GPGGA,092012.000,4334.2342,N,00128.0084,E,2,09,1.06,162.7,M,50.4,M,0000,0000*6A

$GPGSA,A,3,08,11,32,27,10,22,14,01,03,,,,2.24,1.06,1.98*0B

$GPRMC,092012.000,A,4334.2342,N,00128.0084,E,0.01,316.53,171116,,,D*61

$GPVTG,316.53,T,,M,0.01,N,0.03,K,D*38

$GPGSA,A,3,08,11,32,27,10,22,14,01,03,,,,2.24,1.06,1.98*0B
ÿÿÿ
$GPRMC,092003.000,A,4334.2342,N,00128.0083,E,0.00,298.21,171116,,,D*65
$GPVTG,298.21,T,,M,0.00,N,0.01,K,D*39
0083,E,0.00,298.21,171116,,,D*65
$GPGSA,A,3,08,11,32,27,10,22,14,01,03,,,,2.24,1.06,1.98*0B
1116,,,D*65
$GPRMC,091957.000,A,4334.2343,N,00128.0083,E,0.00,323.18,171116,,,D*64
$GPVTG,323.18,T,,M,0.00,N,0.01,K,D*32
0083,E,0.00,323.18,171116,,,D*64
$GPGGA,091958.000,4334.2343,N,00128.0083,E,2,09,1.06,162.3,M,50.4,M,0000,0000*6C
$GPGSA,A,3,08,11,32,27,10,22,14,01,03,,,,2.24,1.06,1.98*0B
M,50.4,M,0000,0000*6C
$GPGGA,092006.000,4334.2343,N,00128.0084,E,2,09,1.06,162.4,M,50.4,M,0000,0000*6D
$GPGSA,A,3,08,11,32,27,10,22,14,01,03,,,,2.24,1.06,1.98*0B
M,50.4,M,0000,0000*6D
$GPGGA,092009.000,4334.2342,N,00128.0084,E,2,09,1.06,162.5,M,50.4,M,0000,0000*62
$GPGGA,092013.000,4334.2342,N,00128.0084,E,2,09,1.06,162.9,M,50.4,M,0000,0000*65

$GPGSA,A,3,08,11,32,27,10,22,14,01,03,,,,2.25,1.06,1.98*0A

$GPRMC,092013.000,A,4334.2342,N,00128.0084,E,0.02,316.23,171116,,,D*64

$GPVTG,316.23,T,,M,0.02,N,0.03,K,D*3C

$GPGSA,A,3,08,11,32,27,10,22,14,01,03,,,,2.24,1.06,1.98*0B
ÿÿÿ
$GPRMC,092009.000,A,4334.2342,N,00128.0084,E,0.00,68.48,171116,,,D*5A
$GPVTG,68.48,T,,M,0.00,N,0.01,K,D*0B
.0084,E,0.00,68.48,171116,,,D*5A
$GPGSV,3,1,11,08,78,171,41,11,64,303,26,01,50,289,30,22,43,218,27*75

$GPGSV,3,2,11,27,36,141,48,33,36,203,40,32,33,084,48,14,29,116,44*79

$GPGSV,3,3,11,10,26,049,28,28,24,312,24,03,24,220,31*46
29,116,44*79

$GPRMC,092006.000,A,4334.2343,N,00128.0084,E,0.01,7.06,171116,,,D*66

$GPVTG,7.06,T,,M,0.01,N,0.02,K,D*3A
8.0084,E,0.01,7.06,171116,,,D*66

$GPGGA,092002.000,4334.2343,N,00128.0083,E,2,09,1.06,162.3,M,50.4,M,0000,0000*69
$GPGSA,A,3,08,11,32,27,10,22,14,01,03,,,,2.25,1.06,1.98*0A
M,50.4,M,0000,0000*69
$GPRMC,092002.000,A,4334.2343,N,00128.0083,E,0.01,44.10,171116,,,D*55
00,0000*69
$GPGGA,092004.000,4334.2342,N,00128.0083,E,2,09,1.06,162.4,M,50.4,M,0000,0000*69
$GPGSA,A,3,08,11,32,27,10,22,14,01,03,,,,2.24,1.06,1.98*0B
M,50.4,M,0000,0000*69
$GPGGA,092014.000,4334.2342,N,00128.0084,E,2,09,1.06,163.0,M,50.4,M,0000,0000*6A

$GPGSA,A,3,08,11,32,27,10,22,14,01,03,,,,2.25,1.06,1.98*0A

$GPRMC,092014.000,A,4334.2342,N,00128.0084,E,0.01,308.36,171116,,,D*6B

$GPVTG,308.36,T,,M,0.01,N,0.01,K,D*36

$GPRMC,092004.000,A,4334.2342,N,00128.0083,E,0.00,55.70,171116,,,D*55
$GPVTG,55.70,T,,M,0.00,N,0.00,K,D*0F
.0083,E,0.00,55.70,171116,,,D*55
$GPVTG,44.10,T,,M,0.01,N,0.01,K,D*09
.0083,E,0.00,55.70,171116,,,D*55
$GPGGA,092010.000,4334.2342,N,00128.0084,E,2,09,1.06,162.6,M,50.4,M,0000,0000*69
$GPGSA,A,3,08,11,32,27,10,22,14,01,03,,,,2.24,1.06,1.98*0B
M,50.4,M,0000,0000*69
$GPRMC,092010.000,A,4334.2342,N,00128.0084,E,0.01,10.68,171116,,,D*5E
00,0000*69
$GPVTG,10.68,T,,M,0.01,N,0.01,K,D*07
.0084,E,0.01,10.68,171116,,,D*5E
00,0000*69
$GPGGA,092000.000,4334.2343,N,00128.0083,E,2,08,1.10,162.3,M,50.4,M,0000,0000*6D
$GPGGA,092001.000,4334.2343,N,00128.0083,E,2,09,1.06,162.3,M,50.4,M,0000,0000*6A
$GPGSA,A,3,08,11,32,27,10,22,14,01,03,,,,2.24,1.06,1.98*0B
M,50.4,M,0000,0000*6A
$GPGSV,3,1,11,08,78,171,41,11,64,303,26,01,50,289,31,22,43,218,17*77
000,0000*6A
$GPGSV,3,2,11,27,36,141,48,33,36,203,40,32,33,084,48,14,29,116,44*79
000,0000*6A
$GPGGA,092015.000,4334.2342,N,00128.0084,E,2,09,1.06,163.0,M,50.4,M,0000,0000*6B

$GPGSA,A,3,08,11,32,27,10,22,14,01,03,,,,2.25,1.06,1.98*0A

$GPRMC,092015.000,A,4334.2342,N,00128.0084,E,0.02,138.20,171116,,,D*6F

$GPVTG,138.20,T,,M,0.02,N,0.03,K,D*31

$GPGGA,092007.000,4334.2342,N,00128.0084,E,2,09,1.06,162.4,M,50.4,M,0000,0000*6D
$GPGSA,A,3,08,11,32,27,10,22,14,01,03,,,,2.24,1.06,1.98*0B
M,50.4,M,0000,0000*6D
$GPRMC,092007.000,A,4334.2342,N,00128.0084,E,0.00,22.52,171116,,,D*51
00,0000*6D
$GPVTG,22.52,T,,M,0.00,N,0.01,K,D*0E
.0084,E,0.00,22.52,171116,,,D*51
00,0000*6D
$GPGSV,3,3,11,10,26,049,28,03,24,220,33,28,23,312,25*42
171116,,,D*51
00,0000*6D
$GPRMC,092001.000,A,4334.2343,N,00128.0083,E,0.01,226.49,171116,,,D*6C
0,0000*6D
$GPVTG,226.49,T,,M,0.01,N,0.02,K,D*30
è 6$GPGSA,A,3,08,11,32,27,10,14,01,03,,,,,2.27,1.10,1.98*0F
‡kµ(˜`$GPGGA,092011.000,4334.2342,N,00128.0084,E,2,09,1.06,162.6,M,50.4,M,0000,0000*68
µ(˜`$GPGSA,A,3,08,11,32,27,10,22,14,01,03,,,,2.25,1.06,1.98*0A
M,50.4,M,0000,0000*68
µ(˜`$GPGSV,3,1,11,08,78,171,39,11,64,303,25,01,50,289,30,22,43,218,28*76
000,0000*68
µ(˜`$GPGSV,3,2,11,27,36,141,48,33,36,203,40,32,33,084,48,14,29,116,45*78
000,0000*68
µ(˜`$GPGGA,092016.000,4334.2342,N,00128.0084,E,2,09,1.06,163.0,M,50.4,M,0000,0000*68

$GPGSA,A,3,08,11,32,27,10,22,14,01,03,,,,2.25,1.06,1.98*0A

$GPGSV,3,1,11,08,78,171,39,11,64,303,24,01,50,290,31,22,43,218,28*7E

$GPGSV,3,2,11,27,36,141,48,33,36,203,40,32,33,084,48,14,29,116,45*78

$GPGSV,3,3,11,10,26,049,29,28,24,312,24,03,24,220,36*40

$GPRMC,092016.000,A,4334.2342,N,00128.0084,E,0.02,270.88,171116,,,D*61

$GPVTG,270.88,T,,M,0.02,N,0.04,K,D*3B

$GPGSV,3,3,11,10,26,049,28,28,24,312,25,03,24,220,33*45
ÿÿÿÿÿÿ
$GPRMC,092011.000,A,4334.2342,N,00128.0084,E,0.01,322.84,171116,,,D*6F
$GPVTG,322.84,T,,M,0.01,N,0.02,K,D*34
0084,E,0.01,322.84,171116,,,D*6F
$GPRMC,092000.000,A,4334.2343,N,00128.0083,E,0.01,359.20,171116,,,D*6B
$GPVTG,359.20,T,,M,0.01,N,0.01,K,D*35
0083,E,0.01,359.20,171116,,,D*6B
$GPGGA,092005.000,4334.2342,N,00128.0083,E,2,09,1.06,162.4,M,50.4,M,0000,0000*68
$GPGSA,A,3,08,11,32,27,10,22,14,01,03,,,,2.25,1.06,1.98*0A
M,50.4,M,0000,0000*68
$GPRMC,092005.000,A,4334.2342,N,00128.0083,E,0.00,257.97,171116,,,D*6D
0,0000*68
$GPVTG,257.97,T,,M,0.00,N,0.01,K,D*37
0083,E,0.00,257.97,171116,,,D*6D
0,0000*68
$GPRMC,091958.000,A,4334.2343,N,00128.0083,E,0.01,347.06,171116,,,D*67
0,0000*68
$GPVTG,347.06,T,,M,0.01,N,0.01,K,D*3E
0083,E,0.01,347.06,171116,,,D*67
0,0000*68
$GPGGA,092008.000,4334.2342,N,00128.0084,E,2,09,1.06,162.5,M,50.4,M,0000,0000*63
$GPGSA,A,3,08,11,32,27,10,22,14,01,03,,,,2.25,1.06,1.98*0A
M,50.4,M,0000,0000*63
$GPGGA,092017.000,4334.2342,N,00128.0084,E,2,09,1.06,163.0,M,50.4,M,0000,0000*69

$GPGSA,A,3,08,11,32,27,10,22,14,01,03,,,,2.25,1.06,1.98*0A

$GPRMC,092017.000,A,9
$GPGSA,A,3,08,11,32,27,10,22,14,01,03,,,,2.25,1.06,1.98*0A
M,50.4,M,0000,0000*69
$GPGSA,A,3,08,11,32,27,10,22,14,01,03,,,,2.25,1.06,1.98*0A
M,50.4,M,0000,0000*69
$GPGSA,A,3,08,11,32,27,10,22,14,01,03,,,,2.25,1.06,1.98*0A
M,50.4,M,0000,0000*69
$GPGSA,A,3,08,11,32,27,10,22,14,01,03,,,,2.25,1.06,1.98*0A
M,50.4,M,0000,0000*69
$GPGSA,A,3,08,11,32,27,10,22,14,01,03,,,,2.25,1.06,1.98*0A
M,50.4,M,0000,0000*69
$GPGGA,092024.000,4334.2342,N,00128.0084,E,2,10,0.87,163.0,M,50.4,M,0000,0000*69

$GPGSA,A,3,08,11,32,27,10,22,28,14,01,03,,,1.87,0.87,1.65*01

$GPRMC,092024.000,A,4334.2342,N,00128.0084,E,0.02,207.15,171116,,,D*64

$GPVTG,207.15,T,,M,0.02,N,0.04,K,D*3F

$GPGSA,A,3,08,11,32,27,10,22,14,01,03,,,,2.25,1.06,1.98*0A
ÿÿÿ
$GPGGA,092024.000,4334.2342,N,00128.0084,E,2,10,0.87,163.0,M,50.4,M,0000,0000*69
$GPGSA,A,3,08,11,32,27,10,22,28,14,01,03,,,1.87,0.87,1.65*01
50.4,M,0000,0000*69
$GPRMC,092024.000,A,4334.2342,N,00128.0084,E,0.02,207.15,171116,,,D*64
0,0000*69
$GPVTG,207.15,T,,M,0.02,N,0.04,K,D*3F
0084,E,0.02,207.15,171116,,,D*64
0,0000*69
$GPGSA,A,3,08,11,32,27,10,22,14,01,03,,,,2.25,1.06,1.98*0A
1116,,,D*64
0,0000*69
$GPGGA,092024.000,4334.2342,N,00128.0084,E,2,10,0.87,163.0,M,50.4,M,0000,0000*69
$GPGSA,A,3,08,11,32,27,10,22,28,14,01,03,,,1.87,0.87,1.65*01
50.4,M,0000,0000*69
$GPRMC,092024.000,A,4334.2342,N,00128.0084,E,0.02,207.15,171116,,,D*64
0,0000*69
$GPGGA,092025.000,4334.2342,N,00128.0084,E,2,10,0.87,163.0,M,50.4,M,0000,0000*68

$GPGSA,A,3,08,11,32,27,10,22,28,14,01,03,,,1.87,0.87,1.65*01

$GPRMC,092025.000,A,4334.2342,N,00128.0084,E,0.03,235.24,171116,,,D*67

$GPVTG,235.24,T,,M,0.03,N,0.05,K,D*3C

$GPVTG,207.15,T,,M,0.02,N,0.04,K,D*3F
ÿÿÿÿÿÿÿÿÿÿÿÿÿÿÿÿÿÿÿÿÿÿÿÿ
$GPGSA,A,3,08,11,32,27,10,22,14,01,03,,,,2.25,1.06,1.98*0A
ÿÿÿ
$GPGGA,092024.000,4334.2342,N,00128.0084,E,2,10,0.87,163.0,M,50.4,M,0000,0000*69
$GPGSA,A,3,08,11,32,27,10,22,28,14,01,03,,,1.87,0.87,1.65*01
50.4,M,0000,0000*69
$GPRMC,092024.000,A,4334.2342,N,00128.0084,E,0.02,207.15,171116,,,D*64
0,0000*69
$GPGGA,092025.000,4334.2342,N,00128.0084,E,2,10,0.87,163.0,M,50.4,M,0000,0000*68
$GPGSA,A,3,08,11,32,27,10,22,28,14,01,03,,,1.87,0.87,1.65*01
50.4,M,0000,0000*68
$GPRMC,092025.000,A,4334.2342,N,00128.0084,E,0.03,235.24,171116,,,D*67
0,0000*68
$GPVTG,235.24,T,,M,0.03,N,0.05,K,D*3C
0084,E,0.03,235.24,171116,,,D*67
0,0000*68
$GPVTG,207.15,T,,M,0.02,N,0.04,K,D*3F
0084,E,0.03,235.24,171116,,,D*67
0,0000*68
$GPGSA,A,3,08,11,32,27,10,22,14,01,03,,,,2.25,1.06,1.98*0A
1116,,,D*67
0,0000*68
$GPGGA,092024.000,4334.2342,N,00128.0084,E,2,10,0.87,163.0,M,50.4,M,0000,0000*69
$GPGGA,092026.000,4334.2342,N,00128.0084,E,2,10,0.87,163.0,M,50.4,M,0000,0000*6B

$GPGSA,A,3,08,11,32,27,10,22,28,14,01,03,,,1.87,0.87,1.65*01

$GPGSV,3,1,11,08,78,171,38,11,65,303,19,01,50,290,32,22,43,218,31*7B

$GPGSV,3,2,11,27,36,141,48,33,36,203,40,32,33,084,47,14,29,115,46*77

$GPGSV,3,3,11,10,25,049,29,28,24,312,27,03,24,220,39*4F

$GPRMC,092026.000,A,4334.2342,N,00128.0084,E,0.02,1.89,171116,,,D*67

$GPVTG,1.89,T,,M,0.02,N,0.04,K,D*3E

$GPGSA,A,3,08,11,32,27,10,22,28,14,01,03,,,1.87,0.87,1.65*01
ÿ
$GPRMC,092024.000,A,4334.2342,N,00128.0084,E,0.02,207.15,171116,,,D*64
$GPGGA,092025.000,4334.2342,N,00128.0084,E,2,10,0.87,163.0,M,50.4,M,0000,0000*68
$GPGSA,A,3,08,11,32,27,10,22,28,14,01,03,,,1.87,0.87,1.65*01
50.4,M,0000,0000*68
$GPRMC,092025.000,A,4334.2342,N,00128.0084,E,0.03,235.24,171116,,,D*67
0,0000*68
$GPVTG,235.24,T,,M,0.03,N,0.05,K,D*3C
0084,E,0.03,235.24,171116,,,D*67
0,0000*68
$GPVTG,207.15,T,,M,0.02,N,0.04,K,D*3F
0084,E,0.03,235.24,171116,,,D*67
0,0000*68
$GPGSA,A,3,08,11,32,27,10,22,14,01,03,,,,2.25,1.06,1.98*0A
1116,,,D*67
0,0000*68
$GPGGA,092024.000,4334.2342,N,00128.0084,E,2,10,0.87,163.0,M,50.4,M,0000,0000*69
$GPGGA,092026.000,4334.2342,N,00128.0084,E,2,10,0.87,163.0,M,50.4,M,0000,0000*6B
$GPGSA,A,3,08,11,32,27,10,22,28,14,01,03,,,1.87,0.87,1.65*01
50.4,M,0000,0000*6B
$GPGSV,3,1,11,08,78,171,38,11,65,303,19,01,50,290,32,22,43,218,31*7B
000,0000*6B
$GPGGA,092027.000,4334.2342,N,00128.0084,E,2,10,0.87,163.0,M,50.4,M,0000,0000*6A

$GPGSA,A,3,08,11,32,27,10,22,28,14,01,03,,,1.87,0.87,1.65*01

$GPRMC,092027.000,A,4334.2342,N,00128.0084,E,0.01,8.68,171116,,,D*63

$GPVTG,8.68,T,,M,0.01,N,0.02,K,D*3D

$GPGSV,3,2,11,27,36,141,48,33,36,203,40,32,33,084,47,14,29,115,46*77
$GPGSV,3,3,11,10,25,049,29,28,24,312,27,03,24,220,39*4F
29,115,46*77
$GPRMC,092026.000,A,4334.2342,N,00128.0084,E,0.02,1.89,171116,,,D*67
$GPVTG,1.89,T,,M,0.02,N,0.04,K,D*3E
8.0084,E,0.02,1.89,171116,,,D*67
$GPGSA,A,3,08,11,32,27,10,22,28,14,01,03,,,1.87,0.87,1.65*01
,,,D*67
$GPRMC,092024.000,A,4334.2342,N,00128.0084,E,0.02,207.15,171116,,,D*64
$GPGGA,092025.000,4334.2342,N,00128.0084,E,2,10,0.87,163.0,M,50.4,M,0000,0000*68
$GPGSA,A,3,08,11,32,27,10,22,28,14,01,03,,,1.87,0.87,1.65*01
3Íï-¨¯Õ
¶‘³U²4T·“¬€$GPRMC,092025.000,A,4334.2342,N,00128.0084,E,0.03,235.24,171116,,,D*67
¶‘³U²4T·“¬€$GPVTG,235.24,T,,M,0.03,N,0.05,K,D*3C
0084,E,0.03,235.24,171116,,,D*67
¶‘³U²4T·“¬€$GPVTG,207.15,T,,M,0.02,N,0.04,K,D*3F
0084,E,0.03,235.24,171116,,,D*67
¶‘³U²4T·“¬€$GPGSA,A,3,08,11,32,27,10,22,14,01,03,,,,2.25,1.06,1.98*0A
1116,,,D*67
¶‘³U²4T·“¬€$GPGGA,092024.000,4334.2342,N,00128.0084,E,2,10,0.87,163.0,M,50.4,M,0000,0000*69
“¬€$GPGGA,092028.000,4334.2342,N,00128.0084,E,2,10,0.87,163.0,M,50.4,M,0000,0000*65

$GPGSA,A,3,08,11,32,27,10,22,28,14,01,03,,,1.86,0.87,1.65*00

$GPRMC,092028.000,A,4334.2342,N,00128.0084,E,0.01,27.59,171116,,,D*53

$GPVTG,27.59,T,,M,0.01,N,0.02,K,D*02

$GPGGA,092026.000,4334.2342,N,00128.0084,E,2,10,0.87,163.0,M,50.4,M,0000,0000*6B
$GPGSA,A,3,08,11,32,27,10,22,28,14,01,03,,,1.87,0.87,1.65*01
50.4,M,0000,0000*6B
$GPGSV,3,1,11,08,78,171,38,11,65,303,19,01,50,290,32,22,43,218,31*7B
000,0000*6B
$GPGGA,092027.000,4334.2342,N,00128.0084,E,2,10,0.87,163.0,M,50.4,M,0000,0000*6A
$GPGSA,A,3,08,11,32,27,10,22,28,14,01,03,,,1.87,0.87,1.65*01
50.4,M,0000,0000*6A
$GPRMC,092027.000,A,4334.2342,N,00128.0084,E,0.01,8.68,171116,,,D*63
000,0000*6A
$GPVTG,8.68,T,,M,0.01,N,0.02,K,D*3D
8.0084,E,0.01,8.68,171116,,,D*63
000,0000*6A
$GPGSV,3,2,11,27,36,141,48,33,36,203,40,32,33,084,47,14,29,115,46*77
000,0000*6A
$GPGSV,3,3,11,10,25,049,29,28,24,312,27,03,24,220,39*4F
29,115,46*77
000,0000*6A
$GPRMC,092026.000,A,4334.2342,N,00128.0084,E,0.02,1.89,171116,,,D*67
000,0000*6A
$GPVTG,1.89,T,,M,0.02,N,0.04,K,D*3E
8.0084,E,0.02,1.89,171116,,,D*67
000,0000*6A
$GPGSA,A,3,08,11,32,27,10,22,28,14,01,03,,,1.87,0.87,1.65*01
,,,D*67
000,0000*6A
$GPRMC,092024.000,A,4334.2342,N,00128.0084,E,0.02,207.15,171116,,,D*64
0,0000*6A
$GPGGA,092029.000,4334.2342,N,00128.0084,E,2,10,0.87,163.0,M,50.4,M,0000,0000*64

$GPGSA,A,3,08,11,32,27,10,22,28,14,01,03,,,1.87,0.87,1.65*01

$GPRMC,092029.000,A,4334.2342,N,00128.0084,E,0.02,53.70,171116,,,D*59

$GPVTG,53.70,T,,M,0.02,N,0.03,K,D*08

$GPGGA,092030.000,4334.2342,N,00128.0084,E,2,10,0.87,163.0,M,50.4,M,0000,0000*6C

$GPGSA,A,3,08,11,32,27,10,22,28,14,01,03,,,1.87,0.87,1.65*01

$GPRMC,092030.000,A,4334.2342,N,00128.0084,E,0.01,87.85,171116,,,D*51

$GPVTG,87.85,T,,M,0.01,N,0.02,K,D*09

$GPGGA,092031.000,4334.2342,N,00128.0084,E,2,10,0.87,163.0,M,50.4,M,0000,0000*6D

$GPGSA,A,3,08,11,32,27,10,22,28,14,01,03,,,1.87,0.87,1.65*01

$GPGSV,3,1,11,08,78,171,40,11,65,303,16,01,50,290,33,22,43,218,31*7A

$GPGSV,3,2,11,27,36,141,48,33,36,203,40,32,33,084,47,14,29,115,46*77

$GPGSV,3,3,11,10,25,049,29,28,24,312,27,03,24,220,40*41

$GPRMC,092031.000,A,4334.2342,N,00128.0084,E,0.01,132.14,171116,,,D*67

$GPVTG,132.14,T,,M,0.01,N,0.02,K,D*3E

$GPGGA,092032.000,4334.2342,N,00128.0084,E,2,10,0.87,163.0,M,50.4,M,0000,0000*6E

$GPGSA,A,3,08,11,32,27,10,22,28,14,01,03,,,1.87,0.87,1.65*01

$GPRMC,092032.000,A,4334.2342,N,00128.0084,E,0.01,71.65,171116,,,D*54

$GPVTG,71.65,T,,M,0.01,N,0.01,K,D*0D

$GPGGA,092033.000,4334.2342,N,00128.0084,E,2,10,0.87,163.0,M,50.4,M,0000,0000*6F

$GPGSA,A,3,08,11,32,27,10,22,28,14,01,03,,,1.87,0.87,1.65*01

$GPRMC,092033.000,A,4334.2342,N,00128.0084,E,0.01,58.50,171116,,,D*58

$GPVTG,58.50,T,,M,0.01,N,0.03,K,D*02

$GPGGA,092034.000,4334.2342,N,00128.0084,E,2,09,1.06,163.0,M,50.4,M,0000,0000*68

$GPGSA,A,3,08,11,32,27,10,22,14,01,03,,,,2.25,1.06,1.98*0A

$GPRMC,092034.000,A,4334.2342,N,00128.0084,E,0.02,38.32,171116,,,D*5E

$GPVTG,38.32,T,,M,0.02,N,0.03,K,D*03

$GPGGA,092035.000,4334.2342,N,00128.0084,E,2,10,0.87,163.0,M,50.4,M,0000,0000*69

$GPGSA,A,3,08,11,32,27,10,22,28,14,01,03,,,1.87,0.87,1.65*01

$GPRMC,092035.000,A,4334.2342,N,00128.0084,E,0.01,61.62,171116,,,D*55

$GPVTG,61.62,T,,M,0.01,N,0.03,K,D*09

$GPGGA,092036.000,4334.2342,N,00128.0084,E,2,09,1.06,163.0,M,50.4,M,0000,0000*6A

$GPGSA,A,3,08,11,32,27,10,22,14,01,03,,,,2.25,1.06,1.98*0A

$GPGSV,3,1,11,08,78,171,41,11,65,303,14,01,50,290,33,22,43,218,31*79

$GPGSV,3,2,11,27,36,141,48,33,36,203,40,32,33,084,47,14,29,115,46*77

$GPGSV,3,3,11,10,25,049,29,28,24,312,26,03,24,220,41*41

$GPRMC,092036.000,A,4334.2342,N,00128.0084,E,0.01,64.46,171116,,,D*55

$GPVTG,64.46,T,,M,0.01,N,0.03,K,D*0A

$GPGGA,092037.000,4334.2342,N,00128.0084,E,2,09,1.06,163.0,M,50.4,M,0000,0000*6B

$GPGSA,A,3,08,11,32,27,10,22,14,01,03,,,,2.25,1.06,1.98*0A

$GPRMC,092037.000,A,4334.2342,N,00128.0084,E,0.01,274.23,171116,,,D*64

$GPVTG,274.23,T,,M,0.01,N,0.01,K,D*38

$GPGGA,092038.000,4334.2342,N,00128.0084,E,2,09,1.06,163.0,M,50.4,M,0000,0000*64

$GPGSA,A,3,08,11,32,27,10,22,14,01,03,,,,2.25,1.06,1.98*0A

$GPRMC,092038.000,A,4334.2342,N,00128.0084,E,0.02,140.41,171116,,,D*68

$GPVTG,140.41,T,,M,0.02,N,0.03,K,D*39

$GPGGA,092039.000,4334.2342,N,00128.0084,E,2,09,1.06,163.0,M,50.4,M,0000,0000*65

$GPGSA,A,3,08,11,32,27,10,22,14,01,03,,,,2.25,1.06,1.98*0A

$GPRMC,092039.000,A,4334.2342,N,00128.0084,E,0.01,259.58,171116,,,D*69

$GPVTG,259.58,T,,M,0.01,N,0.01,K,D*3B

$GPGGA,092040.000,4334.2342,N,00128.0084,E,2,09,1.06,163.0,M,50.4,M,0000,0000*6B

$GPGSA,A,3,08,11,32,27,10,22,14,01,03,,,,2.25,1.06,1.99*0B

$GPRMC,092040.000,A,4334.2342,N,00128.0084,E,0.01,254.98,171116,,,D*66

$GPVTG,254.98,T,,M,0.01,N,0.02,K,D*39

$GPGGA,092041.000,4334.2342,N,00128.0084,E,2,09,1.06,163.0,M,50.4,M,0000,0000*6A

$GPGSA,A,3,08,11,32,27,10,22,14,01,03,,,,2.25,1.06,1.98*0A

$GPGSV,3,1,11,08,78,171,41,11,65,303,16,01,50,290,31,22,43,218,29*70

$GPGSV,3,2,11,27,36,141,48,33,36,203,40,32,33,084,47,14,29,115,46*77

$GPGSV,3,3,11,10,25,049,29,28,24,312,25,03,24,220,41*42

$GPRMC,092041.000,A,4334.2342,N,00128.0084,E,0.00,6.89,171116,,,D*63

$GPVTG,6.89,T,,M,0.00,N,0.01,K,D*3E

$GPGGA,092042.000,4334.2342,N,00128.0084,E,2,09,1.06,163.0,M,50.4,M,0000,0000*69

$GPGSA,A,3,08,11,32,27,10,22,14,01,03,,,,2.25,1.06,1.98*0A

$GPRMC,092042.000,A,4334.2342,N,00128.0084,E,0.00,18.11,171116,,,D*5E

$GPVTG,18.11,T,,M,0.00,N,0.01,K,D*00

$GPGGA,092043.000,4334.2342,N,00128.0084,E,2,09,1.06,163.0,M,50.4,M,0000,0000*68

$GPGSA,A,3,08,11,32,27,10,22,14,01,03,,,,2.25,1.06,1.98*0A

$GPRMC,092043.000,A,4334.2342,N,00128.0084,E,0.01,8.13,171116,,,D*6D

$GPVTG,8.13,T,,M,0.01,N,0.01,K,D*32

$GPGGA,092044.000,4334.2342,N,00128.0084,E,2,09,1.06,163.0,M,50.4,M,0000,0000*6F

$GPGSA,A,3,08,11,32,27,10,22,14,01,03,,,,2.25,1.06,1.98*0A

$GPRMC,092044.000,A,4334.2342,N,00128.0084,E,0.00,349.98,171116,,,D*6E

$GPVTG,349.98,T,,M,0.00,N,0.01,K,D*36

$GPGGA,092045.000,4334.2342,N,00128.0084,E,2,09,1.06,163.0,M,50.4,M,0000,0000*6E

$GPGSA,A,3,08,11,32,27,10,22,14,01,03,,,,2.25,1.06,1.98*0A

$GPRMC,092045.000,A,4334.2342,N,00128.0084,E,0.00,39.33,171116,,,D*5A

$GPVTG,39.33,T,,M,0.00,N,0.01,K,D*03

$GPGGA,092046.000,4334.2342,N,00128.0084,E,2,09,1.06,163.0,M,50.4,M,0000,0000*6D

$GPGSA,A,3,08,11,32,27,10,22,14,01,03,,,,2.25,1.06,1.98*0A

$GPGSV,3,1,11,08,78,171,41,11,65,303,17,01,50,290,29,22,43,218,29*78

$GPGSV,3,2,11,27,36,141,48,33,36,203,40,32,33,083,47,14,29,115,47*71

$GPGSV,3,3,11,10,25,049,27,28,24,312,23,03,24,220,42*49

$GPRMC,092046.000,A,4334.2342,N,00128.0084,E,0.01,9.78,171116,,,D*64

$GPVTG,9.78,T,,M,0.01,N,0.01,K,D*3E

$GPGGA,092047.000,4334.2342,N,00128.0084,E,2,09,1.06,163.0,M,50.4,M,0000,0000*6C

$GPGSA,A,3,08,11,32,27,10,22,14,01,03,,,,2.25,1.06,1.98*0A

$GPRMC,092047.000,A,4334.2342,N,00128.0084,E,0.00,8.46,171116,,,D*68

$GPVTG,8.46,T,,M,0.00,N,0.01,K,D*33

$GPGGA,092048.000,4334.2342,N,00128.0084,E,2,09,1.06,163.0,M,50.4,M,0000,0000*63

$GPGSA,A,3,08,11,32,27,10,22,14,01,03,,,,2.25,1.06,1.98*0A

$GPRMC,092048.000,A,4334.2342,N,00128.0084,E,0.01,6.29,171116,,,D*61

$GPVTG,6.29,T,,M,0.01,N,0.01,K,D*35

$GPGGA,092049.000,4334.2342,N,00128.0084,E,2,09,1.06,163.0,M,50.4,M,0000,0000*62

$GPGSA,A,3,08,11,32,27,10,22,14,01,03,,,,2.25,1.06,1.98*0A

$GPRMC,092049.000,A,4334.2342,N,00128.0084,E,0.01,44.11,171116,,,D*5D

$GPVTG,44.11,T,,M,0.01,N,0.02,K,D*0B

$GPGGA,092050.000,4334.2342,N,00128.0084,E,2,09,1.06,163.0,M,50.4,M,0000,0000*6A

$GPGSA,A,3,08,11,32,27,10,22,14,01,03,,,,2.25,1.06,1.98*0A

$GPRMC,092050.000,A,4334.2342,N,00128.0084,E,0.02,44.91,171116,,,D*5E

$GPVTG,44.91,T,,M,0.02,N,0.04,K,D*06

$GPGGA,092051.000,4334.2343,N,00128.0084,E,2,09,1.06,163.0,M,50.4,M,0000,0000*6A

$GPGSA,A,3,08,11,32,27,10,22,14,01,03,,,,2.25,1.06,1.98*0A

$GPGSV,3,1,11,08,78,171,41,11,65,303,23,01,50,290,29,22,43,218,29*7F

$GPGSV,3,2,11,27,36,141,48,33,36,203,40,32,33,083,47,14,29,115,47*71

$GPGSV,3,3,11,10,25,049,28,28,24,312,22,03,24,220,42*47

$GPRMC,092051.000,A,4334.2343,N,00128.0084,E,0.01,53.02,171116,,,D*51

$GPVTG,53.02,T,,M,0.01,N,0.02,K,D*0F

$GPGGA,092052.000,4334.2343,N,00128.0084,E,2,09,1.06,163.0,M,50.4,M,0000,0000*69

$GPGSA,A,3,08,11,32,27,10,22,14,01,03,,,,2.25,1.06,1.98*0A

$GPRMC,092052.000,A,4334.2343,N,00128.0084,E,0.01,65.10,171116,,,D*54

$GPVTG,65.10,T,,M,0.01,N,0.02,K,D*09

$GPGGA,092053.000,4334.2343,N,00128.0084,E,2,09,1.06,163.0,M,50.4,M,0000,0000*68

$GPGSA,A,3,08,11,32,27,10,22,14,01,03,,,,2.25,1.06,1.98*0A

$GPRMC,092053.000,A,4334.2343,N,00128.0084,E,0.00,11.28,171116,,,D*5C

$GPVTG,11.28,T,,M,0.00,N,0.01,K,D*03

$GPGGA,092054.000,4334.2343,N,00128.0084,E,2,09,1.06,163.0,M,50.4,M,0000,0000*6F

$GPGSA,A,3,08,11,32,27,10,22,14,01,03,,,,2.25,1.06,1.98*0A

$GPRMC,092054.000,A,4334.2343,N,00128.0084,E,0.01,1.97,171116,,,D*6F

$GPVTG,1.97,T,,M,0.01,N,0.01,K,D*37

$GPGGA,092055.000,4334.2343,N,00128.0084,E,2,09,1.06,163.0,M,50.4,M,0000,0000*6E

$GPGSA,A,3,08,11,32,27,10,22,14,01,03,,,,2.25,1.06,1.98*0A

$GPRMC,092055.000,A,4334.2343,N,00128.0084,E,0.01,10.83,171116,,,D*5B

$GPVTG,10.83,T,,M,0.01,N,0.01,K,D*02

$GPGGA,092056.000,4334.2343,N,00128.0084,E,2,09,1.06,163.0,M,50.4,M,0000,0000*6D

$GPGSA,A,3,08,11,32,27,10,22,14,01,03,,,,2.25,1.06,1.98*0A

$GPGSV,3,1,11,08,77,170,41,11,65,303,27,01,50,290,28,22,43,218,29*74

$GPGSV,3,2,11,27,36,141,48,33,36,203,40,32,33,083,47,14,29,115,47*71

$GPGSV,3,3,11,10,25,049,28,28,24,312,20,03,24,220,42*45

$GPRMC,092056.000,A,4334.2343,N,00128.0084,E,0.00,345.08,171116,,,D*69

$GPVTG,345.08,T,,M,0.00,N,0.01,K,D*33

$GPGGA,092057.000,4334.2343,N,00128.0084,E,2,09,1.06,163.0,M,50.4,M,0000,0000*6C

$GPGSA,A,3,08,11,32,27,10,22,14,01,03,,,,2.25,1.06,1.98*0A

$GPRMC,092057.000,A,4334.2343,N,00128.0084,E,0.00,25.44,171116,,,D*55

$GPVTG,25.44,T,,M,0.00,N,0.01,K,D*0E

$GPGGA,092058.000,4334.2343,N,00128.0084,E,2,09,1.06,163.0,M,50.4,M,0000,0000*63

$GPGSA,A,3,08,11,32,27,10,22,14,01,03,,,,2.25,1.06,1.98*0A

$GPRMC,092058.000,A,4334.2343,N,00128.0084,E,0.00,12.57,171116,,,D*5C

$GPVTG,12.57,T,,M,0.00,N,0.00,K,D*09

$GPGGA,092059.000,4334.2343,N,00128.0084,E,2,09,1.06,163.0,M,50.4,M,0000,0000*62

$GPGSA,A,3,08,11,32,27,10,22,14,01,03,,,,2.25,1.06,1.98*0A

$GPRMC,092059.000,A,4334.2343,N,00128.0084,E,0.00,3.72,171116,,,D*6A

$GPVTG,3.72,T,,M,0.00,N,0.01,K,D*3F

$GPGGA,092100.000,4334.2343,N,00128.0084,E,2,09,1.06,163.0,M,50.4,M,0000,0000*6F

$GPGSA,A,3,08,11,32,27,10,22,14,01,03,,,,2.25,1.06,1.98*0A

$GPRMC,092100.000,A,4334.2343,N,00128.0084,E,0.01,355.26,171116,,,D*67

$GPVTG,355.26,T,,M,0.01,N,0.02,K,D*3C

$GPGGA,092101.000,4334.2343,N,00128.0084,E,2,09,1.06,163.0,M,50.4,M,0000,0000*6E

$GPGSA,A,3,08,11,32,27,10,22,14,01,03,,,,2.25,1.06,1.98*0A

$GPGSV,3,1,11,08,77,170,41,11,65,303,29,01,50,290,29,22,43,218,29*7B

$GPGSV,3,2,11,27,36,141,47,33,36,203,40,32,33,083,47,14,30,115,47*76

$GPGSV,3,3,11,10,25,049,27,28,24,312,23,03,24,220,43*48

$GPRMC,092101.000,A,4334.2343,N,00128.0084,E,0.01,272.39,171116,,,D*6C

$GPVTG,272.39,T,,M,0.01,N,0.02,K,D*36

$GPGGA,092102.000,4334.2343,N,00128.0084,E,2,09,1.06,163.0,M,50.4,M,0000,0000*6D

$GPGSA,A,3,08,11,32,27,10,22,14,01,03,,,,2.25,1.06,1.98*0A

$GPRMC,092102.000,A,4334.2343,N,00128.0084,E,0.01,277.37,171116,,,D*64

$GPVTG,277.37,T,,M,0.01,N,0.01,K,D*3E

$GPGGA,092103.000,4334.2343,N,00128.0084,E,2,09,1.06,163.0,M,50.4,M,0000,0000*6C

$GPGSA,A,3,08,11,32,27,10,22,14,01,03,,,,2.25,1.06,1.98*0A

$GPRMC,092103.000,A,4334.2343,N,00128.0084,E,0.01,281.14,171116,,,D*6D

$GPVTG,281.14,T,,M,0.01,N,0.02,K,D*35

$GPGGA,092104.000,4334.2343,N,00128.0084,E,2,09,1.06,163.0,M,50.4,M,0000,0000*6B

$GPGSA,A,3,08,11,32,27,10,22,14,01,03,,,,2.25,1.06,1.98*0A

$GPRMC,092104.000,A,4334.2343,N,00128.0084,E,0.01,280.11,171116,,,D*6E

$GPVTG,280.11,T,,M,0.01,N,0.02,K,D*31

$GPGGA,092105.000,4334.2343,N,00128.0084,E,2,09,1.06,163.0,M,50.4,M,0000,0000*6A

$GPGSA,A,3,08,11,32,27,10,22,14,01,03,,,,2.25,1.06,1.99*0B

$GPRMC,092105.000,A,4334.2343,N,00128.0084,E,0.01,55.95,171116,,,D*59

$GPVTG,55.95,T,,M,0.01,N,0.02,K,D*07

$GPGGA,092106.000,4334.2343,N,00128.0084,E,2,09,1.06,163.0,M,50.4,M,0000,0000*69

$GPGSA,A,3,08,11,32,27,10,22,14,01,03,,,,2.25,1.06,1.98*0A

$GPGSV,3,1,11,08,77,170,42,11,65,303,30,01,50,290,30,22,43,218,31*71

$GPGSV,3,2,11,27,36,141,47,33,36,203,40,32,33,083,47,14,30,115,47*76

$GPGSV,3,3,11,10,25,049,26,28,24,312,25,03,24,220,43*4F

$GPRMC,092106.000,A,4334.2343,N,00128.0084,E,0.01,119.11,171116,,,D*6F

$GPVTG,119.11,T,,M,0.01,N,0.02,K,D*32

$GPGGA,092107.000,4334.2343,N,00128.0084,E,2,09,1.06,163.0,M,50.4,M,0000,0000*68

$GPGSA,A,3,08,11,32,27,10,22,14,01,03,,,,2.25,1.06,1.98*0A

$GPRMC,092107.000,A,4334.2343,N,00128.0084,E,0.01,141.45,171116,,,D*62

$GPVTG,141.45,T,,M,0.01,N,0.02,K,D*3E

$GPGGA,092108.000,4334.2343,N,00128.0084,E,2,09,1.06,163.0,M,50.4,M,0000,0000*67

$GPGSA,A,3,08,11,32,27,10,22,14,01,03,,,,2.25,1.06,1.98*0A

$GPRMC,092108.000,A,4334.2343,N,00128.0084,E,0.01,136.70,171116,,,D*6B

$GPVTG,136.70,T,,M,0.01,N,0.02,K,D*38

$GPGGA,092109.000,4334.2343,N,00128.0084,E,2,09,1.06,163.0,M,50.4,M,0000,0000*66

$GPGSA,A,3,08,11,32,27,10,22,14,01,03,,,,2.25,1.06,1.98*0A

$GPRMC,092109.000,A,4334.2343,N,00128.0084,E,0.02,215.15,171116,,,D*68

$GPVTG,215.15,T,,M,0.02,N,0.03,K,D*3B

$GPGGA,092110.000,4334.2343,N,00128.0084,E,2,09,1.06,163.0,M,50.4,M,0000,0000*6E

$GPGSA,A,3,08,11,32,27,10,22,14,01,03,,,,2.25,1.06,1.98*0A

$GPRMC,092110.000,A,4334.2343,N,00128.0084,E,0.01,309.71,171116,,,D*6D

$GPVTG,309.71,T,,M,0.01,N,0.02,K,D*37

$GPGGA,092111.000,4334.2343,N,00128.0084,E,2,09,1.06,163.0,M,50.4,M,0000,0000*6F

$GPGSA,A,3,08,11,32,27,10,22,14,01,03,,,,2.25,1.06,1.98*0A

$GPGSV,3,1,11,08,77,170,43,11,65,303,31,01,50,290,31,22,44,218,33*75

$GPGSV,3,2,11,27,36,141,46,33,36,203,40,32,33,083,47,14,30,115,47*77

$GPGSV,3,3,11,10,25,049,24,28,24,312,25,03,24,220,43*4D

$GPRMC,092111.000,A,4334.2343,N,00128.0084,E,0.01,337.55,171116,,,D*67

$GPVTG,337.55,T,,M,0.01,N,0.02,K,D*3C

$GPGGA,092112.000,4334.2343,N,00128.0084,E,2,09,1.06,163.0,M,50.4,M,0000,0000*6C

$GPGSA,A,3,08,11,32,27,10,22,14,01,03,,,,2.25,1.06,1.98*0A

$GPRMC,092112.000,A,4334.2343,N,00128.0084,E,0.01,345.26,171116,,,D*65

$GPVTG,345.26,T,,M,0.01,N,0.01,K,D*3E

$GPGGA,092113.000,4334.2343,N,00128.0084,E,2,09,1.06,163.0,M,50.4,M,0000,0000*6D

$GPGSA,A,3,08,11,32,27,10,22,14,01,03,,,,2.25,1.06,1.98*0A

$GPRMC,092113.000,A,4334.2343,N,00128.0084,E,0.02,52.38,171116,,,D*5D

$GPVTG,52.38,T,,M,0.02,N,0.03,K,D*05

$GPGGA,092114.000,4334.2343,N,00128.0084,E,2,09,1.06,163.0,M,50.4,M,0000,0000*6A

$GPGSA,A,3,08,11,32,27,10,22,14,01,03,,,,2.25,1.06,1.98*0A

$GPRMC,092114.000,A,4334.2343,N,00128.0084,E,0.01,54.75,171116,,,D*56

$GPVTG,54.75,T,,M,0.01,N,0.02,K,D*08

$GPGGA,092115.000,4334.2343,N,00128.0084,E,2,09,1.06,163.0,M,50.4,M,0000,0000*6B

$GPGSA,A,3,08,11,32,27,10,22,14,01,03,,,,2.25,1.06,1.98*0A

$GPRMC,092115.000,A,4334.2343,N,00128.0084,E,0.01,147.86,171116,,,D*68

$GPVTG,147.86,T,,M,0.01,N,0.02,K,D*37

$GPGGA,092116.000,4334.2343,N,00128.0084,E,2,09,1.06,163.0,M,50.4,M,0000,0000*68

$GPGSA,A,3,08,11,32,27,10,22,14,01,03,,,,2.25,1.06,1.98*0A

$GPGSV,3,1,11,08,77,170,43,11,65,303,32,01,50,290,32,22,44,218,33*75

$GPGSV,3,2,11,33,36,203,40,27,35,141,45,32,33,083,47,14,30,115,47*77

$GPGSV,3,3,11,10,25,049,21,28,24,311,24,03,24,220,43*4A

$GPRMC,092116.000,A,4334.2343,N,00128.0084,E,0.01,141.59,171116,,,D*6F

$GPVTG,141.59,T,,M,0.01,N,0.02,K,D*33

$GPGGA,092117.000,4334.2343,N,00128.0084,E,2,09,1.06,163.0,M,50.4,M,0000,0000*69

$GPGSA,A,3,08,11,32,27,10,22,14,01,03,,,,2.25,1.06,1.98*0A

$GPRMC,092117.000,A,4334.2343,N,00128.0084,E,0.01,191.36,171116,,,D*6A

$GPVTG,191.36,T,,M,0.01,N,0.02,K,D*37

$GPGGA,092118.000,4334.2343,N,00128.0084,E,2,09,1.06,163.0,M,50.4,M,0000,0000*66

$GPGSA,A,3,08,11,32,27,10,22,14,01,03,,,,2.25,1.06,1.98*0A

$GPRMC,092118.000,A,4334.2343,N,00128.0084,E,0.01,19.40,171116,,,D*55

$GPVTG,19.40,T,,M,0.01,N,0.01,K,D*04

$GPGGA,092119.000,4334.2343,N,00128.0084,E,2,09,1.06,163.0,M,50.4,M,0000,0000*67

$GPGSA,A,3,08,11,32,27,10,22,14,01,03,,,,2.25,1.06,1.98*0A

$GPRMC,092119.000,A,4334.2343,N,00128.0084,E,0.01,37.90,171116,,,D*55

$GPVTG,37.90,T,,M,0.01,N,0.02,K,D*06

$GPGGA,092120.000,4334.2343,N,00128.0084,E,2,09,1.06,163.0,M,50.4,M,0000,0000*6D

$GPGSA,A,3,08,11,32,27,10,22,14,01,03,,,,2.25,1.06,1.98*0A

$GPRMC,092120.000,A,4334.2343,N,00128.0084,E,0.01,26.38,171116,,,D*5D

$GPVTG,26.38,T,,M,0.01,N,0.02,K,D*04

$GPGGA,092121.000,4334.2343,N,00128.0084,E,2,09,1.06,162.9,M,50.4,M,0000,0000*64

$GPGSA,A,3,08,11,32,27,10,22,14,01,03,,,,2.25,1.06,1.98*0A

$GPGSV,3,1,11,08,77,170,43,11,65,303,32,01,50,290,31,22,44,218,35*70

$GPGSV,3,2,11,33,36,203,40,27,35,141,45,32,33,083,47,14,30,115,47*77

$GPGSV,3,3,11,10,25,049,21,28,24,311,26,03,24,220,43*48

$GPRMC,092121.000,A,4334.2343,N,00128.0084,E,0.01,12.25,171116,,,D*57

$GPVTG,12.25,T,,M,0.01,N,0.03,K,D*0E

$GPGGA,092122.000,4334.2343,N,00128.0084,E,2,09,1.06,162.9,M,50.4,M,0000,0000*67

$GPGSA,A,3,08,11,32,27,10,22,14,01,03,,,,2.25,1.06,1.98*0A

$GPRMC,092122.000,A,4334.2343,N,00128.0084,E,0.00,243.85,171116,,,D*69

$GPVTG,243.85,T,,M,0.00,N,0.01,K,D*31

$GPGGA,092123.000,4334.2343,N,00128.0084,E,2,09,1.06,162.9,M,50.4,M,0000,0000*66

$GPGSA,A,3,08,11,32,27,10,22,14,01,03,,,,2.25,1.06,1.98*0A

$GPRMC,092123.000,A,4334.2343,N,00128.0084,E,0.01,229.87,171116,,,D*67

$GPVTG,229.87,T,,M,0.01,N,0.01,K,D*3E

$GPGGA,092124.000,4334.2343,N,00128.0084,E,2,09,1.06,162.9,M,50.4,M,0000,0000*61

$GPGSA,A,3,08,11,32,27,10,22,14,01,03,,,,2.25,1.06,1.98*0A

$GPRMC,092124.000,A,4334.2343,N,00128.0084,E,0.01,226.62,171116,,,D*64

$GPVTG,226.62,T,,M,0.01,N,0.02,K,D*39

$GPGGA,092125.000,4334.2343,N,00128.0084,E,2,09,1.06,162.9,M,50.4,M,0000,0000*60

$GPGSA,A,3,08,11,32,27,10,22,14,01,03,,,,2.25,1.06,1.98*0A

$GPRMC,092125.000,A,4334.2343,N,00128.0084,E,0.01,195.89,171116,,,D*6B

$GPVTG,195.89,T,,M,0.01,N,0.02,K,D*37

$GPGGA,092126.000,4334.2343,N,00128.0084,E,2,09,1.06,162.9,M,50.4,M,0000,0000*63

$GPGSA,A,3,08,11,32,27,10,22,14,01,03,,,,2.25,1.06,1.98*0A

$GPGSV,3,1,11,08,77,170,43,11,65,303,31,01,51,290,31,22,44,218,35*72

$GPGSV,3,2,11,33,36,203,40,27,35,141,45,32,33,083,47,14,30,115,47*77

$GPGSV,3,3,11,10,25,049,20,03,25,220,43,28,24,311,25*4B

$GPRMC,092126.000,A,4334.2343,N,00128.0084,E,0.02,39.09,171116,,,D*54

$GPVTG,39.09,T,,M,0.02,N,0.03,K,D*0A

$GPGGA,092127.000,4334.2343,N,00128.0084,E,2,10,0.87,162.9,M,50.4,M,0000,0000*62

$GPGSA,A,3,08,11,32,27,10,22,28,14,01,03,,,1.87,0.87,1.65*01

$GPRMC,092127.000,A,4334.2343,N,00128.0084,E,0.02,148.74,171116,,,D*68

$GPVTG,148.74,T,,M,0.02,N,0.03,K,D*37

$GPGGA,092128.000,4334.2343,N,00128.0084,E,2,09,1.06,162.9,M,50.4,M,0000,0000*6D

$GPGSA,A,3,08,11,32,27,10,22,14,01,03,,,,2.25,1.06,1.98*0A

$GPRMC,092128.000,A,4334.2343,N,00128.0084,E,0.00,80.59,171116,,,D*5F

$GPVTG,80.59,T,,M,0.00,N,0.01,K,D*0D

$GPGGA,092129.000,4334.2343,N,00128.0084,E,2,09,1.06,162.9,M,50.4,M,0000,0000*6C

$GPGSA,A,3,08,11,32,27,10,22,14,01,03,,,,2.25,1.06,1.98*0A

$GPRMC,092129.000,A,4334.2343,N,00128.0084,E,0.01,245.00,171116,,,D*68

$GPVTG,245.00,T,,M,0.01,N,0.02,K,D*38

$GPGGA,092130.000,4334.2343,N,00128.0084,E,2,10,0.87,162.9,M,50.4,M,0000,0000*64

$GPGSA,A,3,08,11,32,27,10,22,28,14,01,03,,,1.87,0.87,1.65*01

$GPRMC,092130.000,A,4334.2343,N,00128.0084,E,0.01,337.49,171116,,,D*69

$GPVTG,337.49,T,,M,0.01,N,0.02,K,D*31

$GPGGA,092131.000,4334.2343,N,00128.0084,E,2,09,1.06,162.9,M,50.4,M,0000,0000*65

$GPGSA,A,3,08,11,32,27,10,22,14,01,03,,,,2.25,1.06,1.99*0B

$GPGSV,3,1,11,08,77,170,43,11,65,303,29,01,51,290,31,22,44,218,36*78

$GPGSV,3,2,11,33,36,203,40,27,35,141,44,32,33,083,47,14,30,115,47*76

$GPGSV,3,3,11,10,25,049,20,03,25,220,43,28,24,311,26*48

$GPRMC,092131.000,A,4334.2343,N,00128.0084,E,0.01,342.38,171116,,,D*6C

$GPVTG,342.38,T,,M,0.01,N,0.02,K,D*35

$GPGGA,092132.000,4334.2343,N,00128.0084,E,2,10,0.87,162.9,M,50.4,M,0000,0000*66

$GPGSA,A,3,08,11,32,27,10,22,28,14,01,03,,,1.87,0.87,1.65*01

$GPRMC,092132.000,A,4334.2343,N,00128.0084,E,0.01,353.97,171116,,,D*6A

$GPVTG,353.97,T,,M,0.01,N,0.02,K,D*30

$GPGGA,092133.000,4334.2343,N,00128.0084,E,2,09,1.06,162.9,M,50.4,M,0000,0000*67

$GPGSA,A,3,08,11,32,27,10,22,14,01,03,,,,2.25,1.06,1.99*0B

$GPRMC,092133.000,A,4334.2343,N,00128.0084,E,0.02,101.50,171116,,,D*66

$GPVTG,101.50,T,,M,0.02,N,0.04,K,D*3B

$GPGGA,092134.000,4334.2343,N,00128.0084,E,2,09,1.06,162.9,M,50.4,M,0000,0000*60

$GPGSA,A,3,08,11,32,27,10,22,14,01,03,,,,2.25,1.06,1.98*0A

$GPRMC,092134.000,A,4334.2343,N,00128.0084,E,0.02,144.13,171116,,,D*67

$GPVTG,144.13,T,,M,0.02,N,0.03,K,D*3A

$GPGGA,092135.000,4334.2343,N,00128.0084,E,2,10,0.87,162.9,M,50.4,M,0000,0000*61

$GPGSA,A,3,08,11,32,27,10,22,28,14,01,03,,,1.87,0.87,1.65*01

$GPRMC,092135.000,A,4334.2343,N,00128.0084,E,0.02,144.46,171116,,,D*66

$GPVTG,144.46,T,,M,0.02,N,0.03,K,D*3A

$GPGGA,092136.000,4334.2343,N,00128.0084,E,2,09,1.06,162.9,M,50.4,M,0000,0000*62

$GPGSA,A,3,08,11,32,27,10,22,14,01,03,,,,2.25,1.06,1.99*0B

$GPGSV,3,1,11,08,77,170,43,11,65,304,26,01,51,290,31,22,44,218,36*70

$GPGSV,3,2,11,33,36,203,40,27,35,141,44,32,33,083,47,14,30,115,47*76

$GPGSV,3,3,11,10,25,049,20,03,25,220,43,28,24,311,27*49

$GPRMC,092136.000,A,4334.2343,N,00128.0084,E,0.01,153.43,171116,,,D*65

$GPVTG,153.43,T,,M,0.01,N,0.02,K,D*3B

$GPGGA,092137.000,4334.2343,N,00128.0084,E,2,10,0.87,162.9,M,50.4,M,0000,0000*63

$GPGSA,A,3,08,11,32,27,10,22,28,14,01,03,,,1.87,0.87,1.65*01

$GPRMC,092137.000,A,4334.2343,N,00128.0084,E,0.01,192.95,171116,,,D*62

$GPVTG,192.95,T,,M,0.01,N,0.02,K,D*3D

$GPGGA,092138.000,4334.2343,N,00128.0084,E,2,10,0.87,162.9,M,50.4,M,0000,0000*6C

$GPGSA,A,3,08,11,32,27,10,22,28,14,01,03,,,1.87,0.87,1.65*01

$GPRMC,092138.000,A,4334.2343,N,00128.0084,E,0.00,87.53,171116,,,D*53

$GPVTG,87.53,T,,M,0.00,N,0.01,K,D*00

$GPGGA,092139.000,4334.2343,N,00128.0084,E,2,10,0.87,162.9,M,50.4,M,0000,0000*6D

$GPGSA,A,3,08,11,32,27,10,22,28,14,01,03,,,1.87,0.87,1.65*01

$GPRMC,092139.000,A,4334.2343,N,00128.0084,E,0.01,53.64,171116,,,D*5E

$GPVTG,53.64,T,,M,0.01,N,0.02,K,D*0F

$GPGGA,092140.000,4334.2343,N,00128.0084,E,2,10,0.87,162.9,M,50.4,M,0000,0000*63

$GPGSA,A,3,08,11,32,27,10,22,28,14,01,03,,,1.87,0.87,1.66*02

$GPRMC,092140.000,A,4334.2343,N,00128.0084,E,0.01,37.63,171116,,,D*55

$GPVTG,37.63,T,,M,0.01,N,0.02,K,D*0A

$GPGGA,092141.000,4334.2343,N,00128.0084,E,2,10,0.87,162.9,M,50.4,M,0000,0000*62

$GPGSA,A,3,08,11,32,27,10,22,28,14,01,03,,,1.87,0.87,1.66*02

$GPGSV,3,1,11,08,77,170,42,11,65,304,23,01,51,290,31,22,44,218,36*74

$GPGSV,3,2,11,33,36,203,40,27,35,141,44,32,33,083,47,14,30,115,47*76

$GPGSV,3,3,11,10,25,049,22,03,25,220,43,28,24,311,27*4B

$GPRMC,092141.000,A,4334.2343,N,00128.0084,E,0.01,43.77,171116,,,D*52

$GPVTG,43.77,T,,M,0.01,N,0.02,K,D*0C

$GPGGA,092142.000,4334.2343,N,00128.0084,E,2,10,0.87,162.8,M,50.4,M,0000,0000*60

$GPGSA,A,3,08,11,32,27,10,22,28,14,01,03,,,1.87,0.87,1.65*01

$GPRMC,092142.000,A,4334.2343,N,00128.0084,E,0.01,189.91,171116,,,D*6E

$GPVTG,189.91,T,,M,0.01,N,0.02,K,D*33

$GPGGA,092143.000,4334.2343,N,00128.0084,E,2,10,0.87,162.8,M,50.4,M,0000,0000*61

$GPGSA,A,3,08,11,32,27,10,22,28,14,01,03,,,1.87,0.87,1.66*02

$GPRMC,092143.000,A,4334.2343,N,00128.0084,E,0.01,191.66,171116,,,D*6E

$GPVTG,191.66,T,,M,0.01,N,0.02,K,D*32

$GPGGA,092144.000,4334.2343,N,00128.0084,E,2,09,1.06,162.8,M,50.4,M,0000,0000*66

$GPGSA,A,3,08,11,32,27,10,22,14,01,03,,,,2.25,1.06,1.98*0A

$GPRMC,092144.000,A,4334.2343,N,00128.0084,E,0.02,176.88,171116,,,D*63

$GPVTG,176.88,T,,M,0.02,N,0.03,K,D*39

$GPGGA,092145.000,4334.2343,N,00128.0084,E,2,09,1.06,162.8,M,50.4,M,0000,0000*67

$GPGSA,A,3,08,11,32,27,10,22,14,01,03,,,,2.25,1.06,1.99*0B

$GPRMC,092145.000,A,4334.2343,N,00128.0084,E,0.02,231.42,171116,,,D*64

$GPVTG,231.42,T,,M,0.02,N,0.03,K,D*3F

$GPGGA,092146.000,4334.2343,N,00128.0084,E,2,09,1.06,162.8,M,50.4,M,0000,0000*64

$GPGSA,A,3,08,11,32,27,10,22,14,01,03,,,,2.25,1.06,1.99*0B

$GPGSV,3,1,11,08,77,170,42,11,65,304,21,01,51,290,30,22,44,219,36*76

$GPGSV,3,2,11,33,36,203,40,27,35,141,44,32,33,083,47,14,30,115,47*76

$GPGSV,3,3,11,10,25,049,22,03,25,220,43,28,24,311,26*4A

$GPRMC,092146.000,A,4334.2343,N,00128.0084,E,0.00,250.44,171116,,,D*64

$GPVTG,250.44,T,,M,0.00,N,0.01,K,D*3E

$GPGGA,092147.000,4334.2343,N,00128.0084,E,2,09,1.06,162.8,M,50.4,M,0000,0000*65

$GPGSA,A,3,08,11,32,27,10,22,14,01,03,,,,2.25,1.06,1.99*0B

$GPRMC,092147.000,A,4334.2343,N,00128.0084,E,0.00,231.67,171116,,,D*63

$GPVTG,231.67,T,,M,0.00,N,0.01,K,D*38

$GPGGA,092148.000,4334.2343,N,00128.0084,E,2,09,1.06,162.8,M,50.4,M,0000,0000*6A

$GPGSA,A,3,08,11,32,27,10,22,14,01,03,,,,2.25,1.06,1.98*0A

$GPRMC,092148.000,A,4334.2343,N,00128.0084,E,0.01,270.20,171116,,,D*6B

$GPVTG,270.20,T,,M,0.01,N,0.01,K,D*3F

$GPGGA,092149.000,4334.2343,N,00128.0084,E,2,09,1.06,162.8,M,50.4,M,0000,0000*6B

$GPGSA,A,3,08,11,32,27,10,22,14,01,03,,,,2.25,1.06,1.99*0B

$GPRMC,092149.000,A,4334.2343,N,00128.0084,E,0.01,256.84,171116,,,D*60

$GPVTG,256.84,T,,M,0.01,N,0.01,K,D*35

$GPGGA,092150.000,4334.2343,N,00128.0084,E,2,09,1.06,162.9,M,50.4,M,0000,0000*62

$GPGSA,A,3,08,11,32,27,10,22,14,01,03,,,,2.25,1.06,1.99*0B

$GPRMC,092150.000,A,4334.2343,N,00128.0084,E,0.01,252.25,171116,,,D*67

$GPVTG,252.25,T,,M,0.01,N,0.01,K,D*3A

$GPGGA,092151.000,4334.2343,N,00128.0084,E,2,09,1.06,162.9,M,50.4,M,0000,0000*63

$GPGSA,A,3,08,11,32,27,10,22,14,01,03,,,,2.25,1.06,1.99*0B

$GPGSV,3,1,11,08,77,170,42,11,65,304,21,01,51,290,29,22,44,219,36*7E

$GPGSV,3,2,11,33,36,203,41,27,35,141,44,32,33,083,47,14,30,115,47*77

$GPGSV,3,3,11,10,25,049,22,03,25,220,43,28,24,311,23*4F

$GPRMC,092151.000,A,4334.2343,N,00128.0084,E,0.00,0.76,171116,,,D*64

$GPVTG,0.76,T,,M,0.00,N,0.00,K,D*39

$GPGGA,092152.000,4334.2343,N,00128.0084,E,2,09,1.06,162.9,M,50.4,M,0000,0000*60

$GPGSA,A,3,08,11,32,27,10,22,14,01,03,,,,2.25,1.06,1.99*0B

$GPRMC,092152.000,A,4334.2343,N,00128.0084,E,0.01,329.83,171116,,,D*64

$GPVTG,329.83,T,,M,0.01,N,0.02,K,D*38

$GPGGA,092153.000,4334.2343,N,00128.0084,E,2,09,1.06,162.9,M,50.4,M,0000,0000*61

$GPGSA,A,3,08,11,32,27,10,22,14,01,03,,,,2.25,1.06,1.99*0B

$GPRMC,092153.000,A,4334.2343,N,00128.0084,E,0.01,347.42,171116,,,D*60

$GPVTG,347.42,T,,M,0.01,N,0.02,K,D*3D

$GPGGA,092154.000,4334.2343,N,00128.0084,E,2,09,1.06,162.9,M,50.4,M,0000,0000*66

$GPGSA,A,3,08,11,32,27,10,22,14,01,03,,,,2.25,1.06,1.99*0B

$GPRMC,092154.000,A,4334.2343,N,00128.0084,E,0.02,70.87,171116,,,D*5A

$GPVTG,70.87,T,,M,0.02,N,0.03,K,D*01

$GPGGA,092155.000,4334.2342,N,00128.0085,E,2,09,1.06,163.0,M,50.4,M,0000,0000*6F

$GPGSA,A,3,08,11,32,27,10,22,14,01,03,,,,2.25,1.06,1.99*0B

$GPRMC,092155.000,A,4334.2342,N,00128.0085,E,0.02,144.03,171116,,,D*61

$GPVTG,144.03,T,,M,0.02,N,0.03,K,D*3B

$GPGGA,092156.000,4334.2341,N,00128.0086,E,2,09,1.06,163.1,M,50.4,M,0000,0000*6D

$GPGSA,A,3,08,11,32,27,10,22,14,01,03,,,,2.25,1.06,1.99*0B

$GPGSV,3,1,11,08,77,170,42,11,65,304,20,01,51,290,29,22,44,219,36*7F

$GPGSV,3,2,11,33,36,203,41,27,35,141,44,32,33,083,47,14,30,115,47*77

$GPGSV,3,3,11,10,25,049,23,03,25,220,43,28,24,311,18*46

$GPRMC,092156.000,A,4334.2341,N,00128.0086,E,0.02,195.90,171116,,,D*64

$GPVTG,195.90,T,,M,0.02,N,0.03,K,D*3D

$GPGGA,092157.000,4334.2340,N,00128.0087,E,2,09,1.06,163.2,M,50.4,M,0000,0000*6F

$GPGSA,A,3,08,11,32,27,10,22,14,01,03,,,,2.25,1.06,1.99*0B

$GPRMC,092157.000,A,4334.2340,N,00128.0087,E,0.01,145.92,171116,,,D*69

$GPVTG,145.92,T,,M,0.01,N,0.02,K,D*30

$GPGGA,092158.000,4334.2339,N,00128.0088,E,2,09,1.06,163.3,M,50.4,M,0000,0000*60

$GPGSA,A,3,08,11,32,27,10,22,14,01,03,,,,2.25,1.06,1.98*0A

$GPRMC,092158.000,A,4334.2339,N,00128.0088,E,0.01,211.09,171116,,,D*67

$GPVTG,211.09,T,,M,0.01,N,0.02,K,D*30

$GPGGA,092159.000,4334.2338,N,00128.0089,E,2,09,1.06,163.3,M,50.4,M,0000,0000*61

$GPGSA,A,3,08,11,32,27,10,22,14,01,03,,,,2.25,1.06,1.99*0B

$GPRMC,092159.000,A,4334.2338,N,00128.0089,E,0.01,16.33,171116,,,D*5A

$GPVTG,16.33,T,,M,0.01,N,0.02,K,D*0C

$GPGGA,092200.000,4334.2338,N,00128.0089,E,2,09,1.06,163.4,M,50.4,M,0000,0000*69

$GPGSA,A,3,08,11,32,27,10,22,14,01,03,,,,2.25,1.06,1.99*0B

$GPRMC,092200.000,A,4334.2338,N,00128.0089,E,0.01,310.01,171116,,,D*61

$GPVTG,310.01,T,,M,0.01,N,0.02,K,D*38

$GPGGA,092201.000,4334.2337,N,00128.0090,E,2,09,1.06,163.4,M,50.4,M,0000,0000*6F

$GPGSA,A,3,08,11,32,27,10,22,14,01,03,,,,2.25,1.06,1.99*0B

$GPGSV,3,1,11,08,77,170,42,11,65,304,21,01,51,291,26,22,44,219,36*70

$GPGSV,3,2,11,33,36,203,41,27,35,141,44,32,33,083,47,14,30,115,46*76

$GPGSV,3,3,11,10,25,049,20,03,25,220,43,28,24,311,17*4A

$GPRMC,092201.000,A,4334.2337,N,00128.0090,E,0.01,311.68,171116,,,D*69

$GPVTG,311.68,T,,M,0.01,N,0.02,K,D*36

$GPGGA,092202.000,4334.2337,N,00128.0090,E,2,09,1.06,163.2,M,50.4,M,0000,0000*6A

$GPGSA,A,3,08,11,32,27,10,22,14,01,03,,,,2.25,1.06,1.99*0B

$GPRMC,092202.000,A,4334.2337,N,00128.0090,E,0.02,183.75,171116,,,D*6C

$GPVTG,183.75,T,,M,0.02,N,0.03,K,D*31

$GPGGA,092203.000,4334.2336,N,00128.0091,E,2,09,1.06,163.2,M,50.4,M,0000,0000*6B

$GPGSA,A,3,08,11,32,27,10,22,14,01,03,,,,2.25,1.06,1.99*0B

$GPRMC,092203.000,A,4334.2336,N,00128.0091,E,0.01,135.23,171116,,,D*60

$GPVTG,135.23,T,,M,0.01,N,0.01,K,D*3E

$GPGGA,092204.000,4334.2336,N,00128.0091,E,2,09,1.06,163.1,M,50.4,M,0000,0000*6F

$GPGSA,A,3,08,11,32,27,10,22,14,01,03,,,,2.25,1.06,1.99*0B

$GPRMC,092204.000,A,4334.2336,N,00128.0091,E,0.01,76.72,171116,,,D*55

$GPVTG,76.72,T,,M,0.01,N,0.02,K,D*0F

$GPGGA,092205.000,4334.2336,N,00128.0092,E,2,09,1.06,163.0,M,50.4,M,0000,0000*6C

$GPGSA,A,3,08,11,32,27,10,22,14,01,03,,,,2.25,1.06,1.99*0B

$GPRMC,092205.000,A,4334.2336,N,00128.0092,E,0.02,83.49,171116,,,D*56

$GPVTG,83.49,T,,M,0.02,N,0.03,K,D*0F

$GPGGA,092206.000,4334.2336,N,00128.0092,E,2,09,1.06,162.9,M,50.4,M,0000,0000*67

$GPGSA,A,3,08,11,32,27,10,22,14,01,03,,,,2.25,1.06,1.99*0B

$GPGSV,3,1,11,08,77,170,42,11,65,304,24,01,51,291,24,22,44,219,37*76

$GPGSV,3,2,11,33,36,203,41,27,35,141,44,32,33,083,47,14,30,115,45*75

$GPGSV,3,3,11,10,25,049,19,03,25,220,42,28,24,311,18*4E

$GPRMC,092206.000,A,4334.2336,N,00128.0092,E,0.01,73.22,171116,,,D*54

$GPVTG,73.22,T,,M,0.01,N,0.02,K,D*0F

$GPGGA,092207.000,4334.2336,N,00128.0092,E,2,09,1.06,162.7,M,50.4,M,0000,0000*68
